nom,structure_porteuse,description,type_lieu,statut,nature_juridique,siret,adresse_brut,adresse_numero,adresse_rue,adresse_code_postal,adresse_code_insee,adresse_commune,adresse_departement,adresse_region,latitude,longitude,itinerant,en_ligne,contact_telephone,contact_telephone_details,contact_email,contact_web,contact_facebook,horaires_ouverture_brut,horaires_ouverture_osm,public_cible,modalites_acces,modalites_accompagnement,tarifs,accessibilite,services,labels
FEP Médiathèque,,,,,,,11170 Alzonne,,Alzonne,11170,11009,Alzonne,Aude,Occitanie,43.264943,2.165457,,Non,,,fep.alzonne@wanadoo.fr,,,,,,,,,,,
Centre culturel d'Ancizan,,,,,,,65440 Ancizan,,Ancizan,65440,65006,Ancizan,Hautes-Pyrénées,Occitanie,42.87731,0.312815,,Non,,,centreculturel-ancizan@wanadoo.fr,,,,,,,,,,,
Centre Culturel,,,,,,,10 rue de l'Arbizon 65440 Ancizan,10,Rue de l'Arbizon,65440,65006,Ancizan,Hautes-Pyrénées,Occitanie,42.873053,0.342376,,Non,0562399229,,commune.ancizan@orange.fr,,,,,,,,,,,
Bibliothèque municipale,,,,,,,31160 Arbas,,Arbas,31160,31011,Arbas,Haute-Garonne,Occitanie,42.994112,0.908313,,Non,,,,,,,,,,,,,,
SARAPP,,,,,,,65400 Argeles Gazost,,Argelès-Gazost,65400,65025,Argelès-Gazost,Hautes-Pyrénées,Occitanie,43.005364,-0.09429,,Non,,,65sararg@ac-toulouse.fr,,,,,,,,,,,
Restos du Cœur,,,,,Association,,2 rue de l'Arrieulat 65400 Argeles Gazost,2,Rue Arrieulat,65400,65025,Argelès-Gazost,Hautes-Pyrénées,Occitanie,43.003162,-0.103378,,Non,,,,,,,,,,,,,,
Maison Départementale de Solidarité,,,,,,,1 chemin de l'herbe 65400 Argeles Gazost,1,Chemin de l'Herbe,65400,65025,Argelès-Gazost,Hautes-Pyrénées,Occitanie,43.007203,-0.092477,,Non,0531743710,,,,,,,,,,,,,
Médiathèque Municipale,,,,,,,1 rue Jean Bourdette 65400 Argeles Gazost,1,Rue Jean Bourdette,65400,65025,Argelès-Gazost,Hautes-Pyrénées,Occitanie,43.002749,-0.101873,,Non,0562971059,,bibliotheque@mairie-argeles-gazost.com,,,,,,,,,,,
Arreau,La Poste,,La Poste,,,,4 rue Saint-Exupéry 65240 Arreau,4,Rue Saint Exupère,65240,65031,Arreau,Hautes-Pyrénées,Occitanie,42.906182,0.358829,,Non,,,,,,,,,,,,,,France Services
MSAP/Bureau de Poste,,,,,,,4 rue St Exupère 65240 Arreau,4,Rue Saint Exupère,65240,65031,Arreau,Hautes-Pyrénées,Occitanie,42.906182,0.358829,,Non,0562407054,,,,,,,,,,,,,
Restos du Cœur,,,,,Association,,17 grande rue 65240 Arreau,17,Grande Rue,65240,65031,Arreau,Hautes-Pyrénées,Occitanie,42.905152,0.358811,,Non,,,,,,,,,,,,,,
médiathèque,,,,,,,Chateaux des Nestes 65240 Arreau,,Quai de la Neste,65240,65031,Arreau,Hautes-Pyrénées,Occitanie,42.905425,0.358085,,Non,0562986694,,,,,,,,,,,,,
médiathèque de Batsurguère,,,,,,,3 rue de la Ribère 65100 Aspin en Lavedan,3,Rue de la Ribère,65100,65040,Aspin-en-Lavedan,Hautes-Pyrénées,Occitanie,43.076697,-0.046425,,Non,,,asso-escb@orange.fr,,,,,,,,,,,
Coopérative réemploi,,,,,,,32000 Auch,,Auch,32000,32013,Auch,Gers,Occitanie,43.661645,0.566383,,Non,,,,,,,,,,,,,,
Garros Services,,,,,,,32000 Auch,,Auch,32000,32013,Auch,Gers,Occitanie,43.661645,0.566383,,Non,,,auch@cnlrq.org,,,,,,,,,,,
Promeneurs du net,,,,,,,32000 Auch,,Auch,32000,32013,Auch,Gers,Occitanie,43.661645,0.566383,,Non,,,,,,,,,,,,,,
INNOPARC - TIERS LIEUX - MON ESPACE SOHO SOLO,,,,,,,Place Jean David 32000 Auch,,Place Jean David,32000,32013,Auch,Gers,Occitanie,43.648046,0.585039,,Non,0633885876,,f.bedoussac@gersdeveloppement.fr,,,,,,,,,,,
INNOPARC - FABLAB AUCH GERS,,,,,,,6 Rue Roland Salengro 32000 Auch,6,Rue Roger Salengro,32000,32013,Auch,Gers,Occitanie,43.666191,0.60049,,Non,,,a.fievet@gersdeveloppement.fr,,,,,,,,,,,
AG2i,,,,,,,12 quai des marronniers 32000 Auch,12,Quai des Marronniers,32000,32013,Auch,Gers,Occitanie,43.646132,0.589872,,Non,,,,,,,,,,,,,,APTIC
bibliothèque Jules Laforgue,,,,,,,24  avenue Jean Jaurès 65800 Aureilhan,24,Avenue Jean Jaurès,65800,65047,Aureilhan,Hautes-Pyrénées,Occitanie,43.237372,0.093539,,Non,0562389165,,,,,,,,,,,,,
Le foyer Auterive,,,,,,,1  place du Maréchal Leclerc 31190 Auterive,1,Place du Marechal Leclerc,31190,31033,Auterive,Haute-Garonne,Occitanie,43.352866,1.477881,,Non,,,,centresocialauterive.fr,,,,,,,,,,
Communauté de commune bas armagnac,,,,,Collectivité locale ou territoriale,,31190 Auterive,,Auterive,31190,31033,Auterive,Haute-Garonne,Occitanie,43.350694,1.478826,,Non,0561509900,,info@cc-basarmagnac.fr,,,,,,,,,,,
Médiathèque municipale,,,,,,,780 Route d'Espagne 31190 Auterive,780,Route d'Espagne,31190,31033,Auterive,Haute-Garonne,Occitanie,43.337717,1.480148,,Non,0582954575,,direction.mediatheque@auterive-ville.fr mediatheque@auterive-ville.fr,,,,,,,,,,,
Communauté de communes de bassin auterivain,,,,,Collectivité locale ou territoriale,,ZI Robert Lavigne  RD 820 31190 Auterive,,Zone Industrielle Lavigne,31190,31033,Auterive,Haute-Garonne,Occitanie,43.368673,1.445539,,Non,0561509900,,,http://annuaire.auterive31.fr/front/index.php?membre=1687,,,,,,,,,,
Maison France Service Auterive - CC Bassin Auterivain,Communauté de communes,,Administration / Collectivité territoriale,,,,Rd 820 ZI Robert Lavigne 31190 Auterive,,Zone Industrielle Lavigne,31190,31033,Auterive,Haute-Garonne,Occitanie,43.368673,1.445539,,Non,,,guichetunique@ccba31.fr,,,9:00 - 12:00 / 13:30 - 17:30; 9:00 - 12:00 / 13:30 - 17:30; 8:30 - 12:00; 8:30 - 12:00 / 13:30 - 17:00; 8:30 - 12:00 / 13:30 - 17:00; -; ,"Mo 09:00-12:00,13:30-17:30; Tu 09:00-12:00,13:30-17:30; We 08:30-12:00; Th 08:30-12:00,13:30-17:00; Fr 08:30-12:00,13:30-17:00",,,,,,,France Services
TL ESPACE FIRMIN PONS,,,,,,,780  route d'Espagne 31190 Auterive,780,Route d'Espagne,31190,31033,Auterive,Haute-Garonne,Occitanie,43.337717,1.480148,,Non,0561509687,,dgs@auterive-ville.fr,,,,,,,,,,,
Espace Culturel Maintenon,,,,,,,65200 Bagneres de Bigorre,,Bagnères-de-Bigorre,65200,65059,Bagnères-de-Bigorre,Hautes-Pyrénées,Occitanie,43.000505,0.130094,,Non,,,centre.culturel@ville-bagneresdebigorre.fr,,,,,,,,,,,
Haute Bigorre,CC de la Haute-Bigorre,,Administration / Collectivité territoriale,,,,30 avenue Géruzet 65200 Bagneres de Bigorre,30,Avenue Géruzet,65200,65059,Bagnères-de-Bigorre,Hautes-Pyrénées,Occitanie,43.068337,0.151566,,Non,,,,,,8:30 - 12:00 / 13:30 - 17:00; 8:30 - 12:00 / 13:30 - 17:00; 8:30 - 12:00 / 13:30 - 17:00; 8:30 - 12:00 / 13:30 - 17:00; 8:30 - 12:00 / 13:30 - 17:00; -; ,"Mo 08:30-12:00,13:30-17:00; Tu 08:30-12:00,13:30-17:00; We 08:30-12:00,13:30-17:00; Th 08:30-12:00,13:30-17:00; Fr 08:30-12:00,13:30-17:00",,,,,,,France Services
Restos du Cœur,,,,,Association,,4 rue Grasset 65200 Bagnères de Bigorre,4,Rue Grasset,65200,65059,Bagnères-de-Bigorre,Hautes-Pyrénées,Occitanie,43.065049,0.152363,,Non,,,,,,,,,,,,,,
Médiathèque Intercommunale,,,,,,,4 rue alsace Lorraine 65200 Bagnères de Bigorre,4,Rue Alsace Lorraine,65200,65059,Bagnères-de-Bigorre,Hautes-Pyrénées,Occitanie,43.062172,0.149415,,Non,0562953464,,mediatheque@haute-bigorre.fr,,,,,,,,,,,
Maison Départementale de la Solidarité,,,,,,,1 rue Castelmouly 65200 Bagnères de Bigorre,1,Rue du Castelmouly,65200,65059,Bagnères-de-Bigorre,Hautes-Pyrénées,Occitanie,43.070651,0.148817,,Non,0531743620,,,,,,,,,,,,,
MSAP,,,,,,,30 avenue de Géruzet 65200 Bagnères de Bigorre,30,Avenue Géruzet,65200,65059,Bagnères-de-Bigorre,Hautes-Pyrénées,Occitanie,43.068337,0.151566,,Non,0562904202,,msap@haute-bigorre.fr,,,,,,,,,,,
31 SARLUC,,,,,,,31110 Bagnères de Luchon,,Bagnères-de-Luchon,31110,31042,Bagnères-de-Luchon,Haute-Garonne,Occitanie,42.764074,0.615959,,Non,,,31sarluc@ac-toulouse.fr,,,,,,,,,,,
MJC,,,,,,,31110 Bagnères de Luchon,,Bagnères-de-Luchon,31110,31042,Bagnères-de-Luchon,Haute-Garonne,Occitanie,42.764074,0.615959,,Non,,,luchon@mjc-midi-pyrenees.com,,,,,,,,,,,
Foyer Expérimental Pierre Ribet,,,,,,,31130 Balma,,Balma,31130,31044,Balma,Haute-Garonne,Occitanie,43.61093,1.50334,,Non,,,,,,,,,,,,,,
Val de Gers - Antenne de Barran,Communauté de Communes Val de Gers,,Administration / Collectivité territoriale,,,,45 rue du Docteurue G. Demandès 32350 Barran,45,Rue du Docteur Demandes,32350,32029,Barran,Gers,Occitanie,43.616542,0.442847,,Non,,,mairiedebarran@wanadoo.fr,,,-; 8:30 - 12:00; 8:30 - 12:00 / 13:30 - 17:00; 8:30 - 12:00 / 13:30 - 17:00; 8:30 - 12:00; 8:30 - 12:00; ,"Tu 08:30-12:00; We 08:30-12:00,13:30-17:00; Th 08:30-12:00,13:30-17:00; Fr 08:30-12:00; Sa 08:30-12:00",,,,,,,France Services
Le 100eme singe,,,Association,,Association,,8 route de Fourquevaux 31450 Belberaud,8,Route de Fourquevaux,31450,31057,Belberaud,Haute-Garonne,Occitanie,43.510941,1.566573,,Non,0617136598,,lecentiemesinge@gmail.com,le100esinge.com,,,,,,,,,,
Gerskali / Gers numérique,,,,,,,32480 Berrac,,Berrac,32480,32047,Berrac,Gers,Occitanie,44.0079,0.5515,,Non,,,,https://www.gers-numerique.com/,,09h - 18h; 09h - 18h; 09h - 18h; 09h - 18h; 09h - 18h; ; ,Mo 09:00-18:00; Tu 09:00-18:00; We 09:00-18:00; Th 09:00-18:00; Fr 09:00-18:00,,,,,,,
Le Relai,,,Association,,,,11000 Berriac,,Berriac,11000,11037,Berriac,Aude,Occitanie,43.213227,2.401777,,Non,,,,,,,,,,,,,,
Val Aïgo - Antenne de Bessières,Communauté de communes Val'Aïgo,,Administration / Collectivité territoriale,,,,26 Place du souvenir 31660 Bessieres,26,Place du Souvenir,31660,31066,Bessières,Haute-Garonne,Occitanie,43.80075,1.606565,,Non,,,cias2@valaigo.fr,,,9:00 - 12:30 / 14:00 - 17:00; 9:00 - 12:30 / Sur RDV : après-midi; 9:00 - 12:30 / Sur RDV : après-midi; 9:00 - 12:30 / Sur RDV : après-midi; 9:00 - 12:30 / Sur RDV : après-midi; -; ,,,,,,,,France Services
Mairie de Blagnac,,,"Commune (Ville, CCAS, Centre Culturel...)",,,,31700 Blagnac,,Blagnac,31700,31069,Blagnac,Haute-Garonne,Occitanie,43.638623,1.379714,,Non,,,,,,,,,,,,,,
centre social blagnac,,,,,,,Blagnac,,Blagnac,31700,31069,Blagnac,Haute-Garonne,Occitanie,43.638623,1.379714,,Non,,,,,,,,,,,,,,
FAB MJC DES ARTS BLAGNAC,,,,,,,31700 Blagnac,,Blagnac,31700,31069,Blagnac,Haute-Garonne,Occitanie,43.638623,1.379714,,Non,,,direction@mjc-arts-blagnac.com,,,,,,,,,,,
bibliothèque Claude Nogaro,,,,,,,place J Jaurès 65320 Bordères sur Echez,,Place Jean Jaurès,65320,65100,Bordères-sur-l'Échez,Hautes-Pyrénées,Occitanie,43.258089,0.051235,,Non,0562383373,,,,,,,,,,,,,
Maison de services au public POM's de Bouisse,,,Maison de Service au Public (MSAP),,,,Bouisse,,Bouisse,11330,11044,Bouisse,Aude,Occitanie,42.987293,2.429092,,Non,,,poms.bouisse@orange.fr,,,,,,,,,,,
Mediatheque Milcom de Boutenac,,,,,,,Boutenac,,Boutenac,11200,11048,Boutenac,Aude,Occitanie,43.144897,2.816707,,Non,,,,,,; 14h-18h; 14h-18h; ; 14h-18h; ; ,Tu 14:00-18:00; We 14:00-18:00; Fr 14:00-18:00,,,,,,,
Piège Lauragais Malepere,CDC PIEGE LAURAGAIS MALEPERE,,Administration / Collectivité territoriale,,,,62 rue bonrepos 11150 Bram,62,Rue Bonrepos,11150,11049,Bram,Aude,Occitanie,43.241583,2.118852,,Non,,,msap@ccplm.fr,,,8:30 - 12:00 / 13:30 - 17:00; 8:30 - 12:00 / 13:30 - 17:00; 8:30 - 12:00 / 13:30 - 17:00; 8:30 - 12:00 / 13:30 - 17:00; 8:30 - 12:00 / 13:30 - 17:00; -; ,"Mo 08:30-12:00,13:30-17:00; Tu 08:30-12:00,13:30-17:00; We 08:30-12:00,13:30-17:00; Th 08:30-12:00,13:30-17:00; Fr 08:30-12:00,13:30-17:00",,,,,,,France Services
Espace Public Informatique du canton de Campan,,,,,,,65710 Campan,,Campan,65710,65123,Campan,Hautes-Pyrénées,Occitanie,42.97543,0.219909,,Non,,,epicampan@gmail.com,,,,,,,,,,,
Carcassone Agglo,CARCASSONNE AGGLO,,Administration / Collectivité territoriale,,,,2 rue des Figuères 11700 Capendu,2,Rue des Figuéres,11700,11068,Capendu,Aude,Occitanie,43.184142,2.556949,,Non,,,msap@carcassonne-agglo.fr,,,8:00 - 13:00 / 14:00 - 17:00; 8:00 - 13:00 / 14:00 - 17:00; 8:30 - 12:00; 8:00 - 13:00 / 14:00 - 17:00; 8:00 - 13:00 / 14:00 - 17:00; -; ,"Mo 08:00-13:00,14:00-17:00; Tu 08:00-13:00,14:00-17:00; We 08:30-12:00; Th 08:00-13:00,14:00-17:00; Fr 08:00-13:00,14:00-17:00",,,,,,,France Services
R'MINE - FABLAB CARACASSONNE AGGLO,,,,,,,20 rue Claude CHAPPE 11000 Carcasonne,20,Rue Claude Chappe,11000,11069,Carcassonne,Aude,Occitanie,43.212161,2.324602,,Non,0468119558,,Denis.PETITCOLIN@carcassonne-agglo.fr,,,,,,,,,,,
Régie de quartier,,,Association,,,,11000 Carcassonne,,Carcassonne,11000,11069,Carcassonne,Aude,Occitanie,43.207511,2.344538,,Non,,,carcassonne-rdq@cnlrq.org,,,,,,,,,,,
Espace Culturel Multimédia,,,"Commune (Ville, CCAS, Centre Culturel...)",,,,11000 Carcassonne,,Carcassonne,11000,11069,Carcassonne,Aude,Occitanie,43.207511,2.344538,,Non,,,,,,,,,,,,,,
acti city - Information Jeunesse,,,,,,,11000 Carcassonne,,Carcassonne,11000,11069,Carcassonne,Aude,Occitanie,43.207511,2.344538,,Non,,,information.jeunesse@acticity.com,,,,,,,,,,,
Logigames,,,,,,,25 boulevard de Varsovie 11000 Carcassonne,25,Boulevard de Varsovie,11000,11069,Carcassonne,Aude,Occitanie,43.21404,2.346553,,Non,0468726704,,logigames2001@yahoo.fr,logigames.fr,,; 10h – 19h; 10h – 19h; 10h – 19h; 10h – 19h; 13h - 21h; ,Tu 10:00-19:00; We 10:00-19:00; Th 10:00-19:00; Fr 10:00-19:00; Sa 13:00-21:00,,,,,,,
EPCI,,,,,,,Carcassonne,,Carcassonne,11000,11069,Carcassonne,Aude,Occitanie,43.207511,2.344538,,Non,,,,,,,,,,,,,,
EPI de Castelnau Magnoac,,,,,,,65230 Castelnau Magnoac,,Castelnau-Magnoac,65230,65129,Castelnau-Magnoac,Hautes-Pyrénées,Occitanie,43.299358,0.512068,,Non,,,epi.castelnau.magnoac@wanadoo.fr,,,,,,,,,,,
Médiathèque,,,,,,,21 place de l'Estelette 65230 Castelnau Magnoac,21,Place de l'Estelette,65230,65129,Castelnau-Magnoac,Hautes-Pyrénées,Occitanie,43.29505,0.505823,,Non,0562998062,,biblio-castelnau@orange.fr,,,,,,,,,,,
SYMA DU NOUGAROPOLE,,,,,,,Route de Caupenne d’armagnac 32110 Caupenne d'armagnac,,Caupenne Vieille,32110,32094,Caupenne-d'Armagnac,Gers,Occitanie,43.77759,-0.045349,,Non,0672241670,,florence.fos@nogaropole.fr,,,,,,,,,,,
Info Cyber jeunes - Association SOLEIL. PIJ,,,,,,,65110 Cauterets,,Cauterets,65110,65138,Cauterets,Hautes-Pyrénées,Occitanie,42.876467,-0.103644,,Non,,,planeteicj@pyrenees.net,,,,,,,,,,,
Médiathèque Municipale,,,,,,,2 Esplanade des œufs 65110 Cauterets,2,Esplanade des Oeufs,65110,65138,Cauterets,Hautes-Pyrénées,Occitanie,42.887476,-0.114472,,Non,0562925996,,bibliocauterets@wanadoo.fr,,,,,,,,,,,
ATRIUM,,,,,,,11510 Caves,,Caves,11510,11086,Caves,Aude,Occitanie,42.936653,2.970276,,Non,,,atriumcaves@gmail.com,,,,,,,,,,,
Maison Pour tous,,,,,,,6 rue des Capucins 31220 Cazères,,Rue des Capucins,31220,31135,Cazères,Haute-Garonne,Occitanie,43.202236,1.082897,,Non,,,,www.mptcazeres.fr,,,,,Accès libre,,,,,
Foyer rural « La Gabela »,,,,,,,mairie 31550 Cintegabelle,,Pinie,31550,31145,Cintegabelle,Haute-Garonne,Occitanie,43.318696,1.535946,,Non,,,,,,,,,Accès libre,,,,,
foyer rural Clarac,,,Association,,,,Chemin de Sainte Anne 31210 Clarac,,Chemin de Sainte Anne,31210,31147,Clarac,Haute-Garonne,Occitanie,43.097627,0.621318,,Non,0561897064,,foyer-rural-clarac@orange.fr,http://www.foyerruralclarac.org/accueil.html,,,,,,,,,,
Association Arcolan,,,,,Association,,32430 Cologne,,Cologne,32430,32106,Cologne,Gers,Occitanie,43.722523,0.980098,,Non,,,,,,,,,,,,,,
MSAP Cologne,,,Maison de Service au Public (MSAP),,,,Route d'Ardizas 32430 Cologne,,Route de Cologne,32430,32448,Touget,Gers,Occitanie,43.689455,0.913974,,Non,0562051361,,msap@ccbl32.fr,https://www.maisondeservicesaupublic.frcontent/bastides-de-lomagne,,,,,,,,,,
LE SITE,,,,,,,Route de Sarrant 32430 Cologne,,Route de Cologne,32120,32416,Sarrant,Gers,Occitanie,43.772761,0.929893,,Non,0608513342,,philippe.jaubert32@gmail.com,,,,,,,,,,,
Mairie,,,"Commune (Ville, CCAS, Centre Culturel...)",,,,31770 Colomiers,,Colomiers,31770,31149,Colomiers,Haute-Garonne,Occitanie,43.610367,1.329544,,Non,,,,,,,,,,,,,,
CCAS,,,"Commune (Ville, CCAS, Centre Culturel...)",,,,31776 Colomiers,,Colomiers,31770,31149,Colomiers,Haute-Garonne,Occitanie,43.610367,1.329544,,Non,,,,,,,,,,,,,,
LA MIJOTEUSE,,,,,,,Place Joseph Verseille 31770 Colomiers,,Place Joseph Verseille,31770,31149,Colomiers,Haute-Garonne,Occitanie,43.609585,1.339368,,Non,0638506531,,christine.gouaux@mairie-colomiers.fr,,,,,,,,,,,
Point Rencontres Chomeurs Precaires (PRCP),,,,,,,2 Allée du Vignemale 31770 Colomiers,2,Allée du Vignemale,31770,31149,Colomiers,Haute-Garonne,Occitanie,43.60514,1.333515,,Non,,,,,,,,,,,,,,APTIC
Centre Social de la Ténarèze,,,,,,,28 rue Gambetta 32100 Condom,28,Rue Gambetta,32100,32107,Condom,Gers,Occitanie,43.957361,0.37465,,Non,,,,,,,,,,,,,,
Maison de services au public POM'S de Davejean,,,Maison de Service au Public (MSAP),,,,Davejean,,Davejean,11330,11117,Davejean,Aude,Occitanie,42.959274,2.614679,,Non,,,poms.davejean@orange.fr,,,,,,,,,,,
Mediatheque Milcom de Fabrezan,,,,,,,Fabrezan,,Fabrezan,11200,11132,Fabrezan,Aude,Occitanie,43.126783,2.713806,,Non,0468437192,,,,,,,,,,,,,
Association Femmes du Monde,,,,,Association,,31150 Fenouillet,,Fenouillet,31150,31182,Fenouillet,Haute-Garonne,Occitanie,43.686369,1.391582,,Non,,,,,,,,,,,,,,
Bibliothèque municipale,,,,,,,100 rue Pasteur 32500 Fleurance,100,Rue Pasteur,32500,32132,Fleurance,Gers,Occitanie,43.850759,0.664174,,Non,0562061896,,,,,,,,,,,,,
Mairie,,,"Commune (Ville, CCAS, Centre Culturel...)",,,,32500 Fleurance,,Fleurance,32500,32132,Fleurance,Gers,Occitanie,43.842691,0.656247,,Non,0562061001,,,https://www.villefleurance.fr/,,,,,,,,,,
Fleurance,Commune de Fleurance,,Administration / Collectivité territoriale,,,,62 Rue Adolphe Cadéot 32500 Fleurance,62,Rue Adolphe Cadéot,32500,32132,Fleurance,Gers,Occitanie,43.850282,0.661762,,Non,,,ccas.compta@villefleurance.fr,,,8:30 - 12:30 / 13:30 - 17:00; 8:30 - 12:30 / 13:30 - 17:00; 8:30 - 12:30 / 13:30 - 17:00; 8:30 - 12:30 / 13:30 - 17:00; 8:30 - 12:30 / 13:30 - 16:30; -; ,"Mo 08:30-12:30,13:30-17:00; Tu 08:30-12:30,13:30-17:00; We 08:30-12:30,13:30-17:00; Th 08:30-12:30,13:30-17:00; Fr 08:30-12:30,13:30-16:30",,,,,,,France Services
FABLAB C.C LOMAGNE GERSOISE - LIR,,,,,,,8 Avenue Pierre de Coubertin 32500 Fleurance,8,Avenue Pierre de Coubertin,32500,32132,Fleurance,Gers,Occitanie,43.850519,0.665674,,Non,,,pole21@lomagne-gersoise.com,,,,,,,,,,,
Galan,,,,,,,1 Place de la Bastide 65330 Galan,1,Place de la Bastide,65330,65183,Galan,Hautes-Pyrénées,Occitanie,43.222512,0.406892,,Non,,,,,,,,,,,,,,France Services
bibliothèque Daniel Pennac,,,,,,,place Verdun 65420 Ibos,,Place de Verdun,65420,65226,Ibos,Hautes-Pyrénées,Occitanie,43.232817,0.001016,,Non,0562906100,,,,,,,,,,,,,
FABLAB LA SOULANE,,,,,,,65240 Jezeau,,Jézeau,65240,65234,Jézeau,Hautes-Pyrénées,Occitanie,42.903191,0.368247,,Non,0621985671,,soulane.asso@gmail.com,,,,,,,,,,,
centre social F Chopin,,,,,,,31880 La Salvetat Saint Gilles,,La Salvetat-Saint-Gilles,31880,31526,La Salvetat-Saint-Gilles,Haute-Garonne,Occitanie,43.575297,1.265705,,Non,,,,,,,,,,,,,,
ASSOCIATION IOT VALLEY,,,,,,,425 rue Jean Rostand 31670 Labège,425,Rue Jean Rostand,31670,31254,Labège,Haute-Garonne,Occitanie,43.543887,1.511505,,Non,,,bertran@iot-valley.fr,,,,,,,,,,,
Centre social Escalquens / CCAS,,,,,,,Mairie d'Escalquens Place François Mitterrand Labège,,Place Francois Mitterrand,31750,31169,Escalquens,Haute-Garonne,Occitanie,43.517864,1.558979,,Non,0562715675,,centre.social@escalquens.fr,www.escalquens.fr,,8h30-12h et 14h-18h; 8h30-12h et 14h-18h; 8h30-12h et 14h-18h; 9h-12h et 14h-19h; 8h30-12h et 14h-18h; ; ,"Mo 08:30-12:00,14:00-18:00; Tu 08:30-12:00,14:00-18:00; We 08:30-12:00,14:00-18:00; Th 09:00-12:00,14:00-19:00; Fr 08:30-12:00,14:00-18:00",,,,,,,
EVOLFABLAB,,,,,,,289 route de la fontannasse 31870 Lagardelle-sur-Lèze,289,Route de la Fontanasse,31870,31263,Lagardelle-sur-Lèze,Haute-Garonne,Occitanie,43.414922,1.396709,,Non,0620221148,,infoaleze@gmail.com,,,,,,,,,,,
Mairie,,,,,,,31870 Lagardelle-sur-Lèze,,Lagardelle-sur-Lèze,31870,31263,Lagardelle-sur-Lèze,Haute-Garonne,Occitanie,43.415164,1.393363,,Non,,,,,,,,,Accès libre,,,,,
Médiathèque municipale,,,,,,,3 Château de Vignaou 31870 Lagardelle-sur-Lèze,3,Rue du Chateau du Vignaou,31870,31263,Lagardelle-sur-Lèze,Haute-Garonne,Occitanie,43.414512,1.388385,,Non,,,bm.lagardelle@wanadoo.fr,,,; 15h00 - 18h00; 09h30 - 12h30 et 15h00 - 18h00; 15h00 - 18h00; 09h30 - 12h30; 09h30 - 12h30; ,"Tu 15:00-18:00; We 09:30-12:30,15:00-18:00; Th 15:00-18:00; Fr 09:30-12:30; Sa 09:30-12:30",,,,,,,
Mairie,,,"Commune (Ville, CCAS, Centre Culturel...)",,,,32500 Lamothe Goas,,Lamothe-Goas,32500,32188,Lamothe-Goas,Gers,Occitanie,43.872387,0.57237,,Non,,,,http://www.lamothe-goas.com/,,,,,,,,,,
SARAPP,,,,,,,65300 Lannemezan,,Lannemezan,65300,65258,Lannemezan,Hautes-Pyrénées,Occitanie,43.123752,0.396535,,Non,,,,,,,,,,,,,,
Espace Public Informatique,,,,,,,Galérie Paul bert 65300 Lannemezan,,Rue Paul Bert,65300,65258,Lannemezan,Hautes-Pyrénées,Occitanie,43.124351,0.384467,,Non,0562991854,,,,,,,,,,,,,
Maison Départementale de la solidarité,,,,,,,325 rue Thiers 65300 Lannemezan,325,Rue Thiers,65300,65258,Lannemezan,Hautes-Pyrénées,Occitanie,43.122287,0.383532,,Non,0531743510,,,,,,,,,,,,,
Restos du Cœur,,,,,Association,,272 rue Voltaire 65300 Lannemezan,,Rue Voltaire,65300,65258,Lannemezan,Hautes-Pyrénées,Occitanie,43.126108,0.388652,,Non,,,,,,,,,,,,,,
Desir informatique faugatien,,,Association,,,,31410 Le Fauga,,Le Fauga,31410,31181,Le Fauga,Haute-Garonne,Occitanie,43.400557,1.291478,,Non,,,,,,,,,,,,,,
mairie La Fauga,,,"Commune (Ville, CCAS, Centre Culturel...)",,,,31410 Le Fauga,,Le Fauga,31410,31181,Le Fauga,Haute-Garonne,Occitanie,43.400557,1.291478,,Non,,,mairie@lefauga.fr,,,,,,,,,,,
MSAP,,,Maison de Service au Public (MSAP),,,,2 cours Gambetta 32700 Lectoure,2,Cours Gambetta,32700,32208,Lectoure,Gers,Occitanie,43.933522,0.626401,,Non,0562687547,,ccas.accueil@mairie-lectoure.fr,https://www.maisondeservicesaupublic.fr/content/lectoure,,,,,,,,,,
Télécentre de Lectoure,,,,,,,32700 Lectoure,,Lectoure,32700,32208,Lectoure,Gers,Occitanie,43.94513,0.656629,,Non,,,priviere@mairie-lectoure.fr,,,,,,,,,,,
Régie rurale de services de Lomagne,,,Association,,,,32700 Lectoure,,Lectoure,32700,32208,Lectoure,Gers,Occitanie,43.94513,0.656629,,Non,,,regie.lectoure@cnlrq.org,,,,,,,,,,,
Bibliothèque médiathèque municipale,,,,,,,rue Saint Gervais 32700 Lectoure,,Rue Saint Gervais,32700,32208,Lectoure,Gers,Occitanie,43.934117,0.623142,,Non,0562684832,,,,,,,,,,,,,
Génération Mouvement,,,Association,,,,32700 Lectoure,,Lectoure,32700,32208,Lectoure,Gers,Occitanie,43.94513,0.656629,,Non,0562687177,,,,,,,,,,,,,
Mairie,,,"Commune (Ville, CCAS, Centre Culturel...)",,,,32700 Lectoure,,Lectoure,32700,32208,Lectoure,Gers,Occitanie,43.94513,0.656629,,Non,0562687022,,,https://www.lectoure.fr/fr-contact.html,,,,,,,,,,
Lectoure,Commune de Lectoure,,Administration / Collectivité territoriale,,,,2 Cours Gambetta 32700 Lectoure,2,Cours Gambetta,32700,32208,Lectoure,Gers,Occitanie,43.933522,0.626401,,Non,,,ccas.direction@mairie-lectoure.fr,,,8:30 - 12:00 / 13:30 - 17:00; 8:30 - 12:00 / 13:30 - 17:00; 8:30 - 12:00 / 13:30 - 17:00; 8:30 - 12:00 / 13:30 - 17:00; 8:30 - 12:00 / 13:30 - 17:00; -; ,"Mo 08:30-12:00,13:30-17:00; Tu 08:30-12:00,13:30-17:00; We 08:30-12:00,13:30-17:00; Th 08:30-12:00,13:30-17:00; Fr 08:30-12:00,13:30-17:00",,,,,,,France Services
PEPINIERES D ENTREPRISES DE LOMAGNE,,,,,,,ZI La Couture 32700 Lectoure,,Lieu Dit la Couture,32700,32208,Lectoure,Gers,Occitanie,43.958787,0.606889,,Non,,,economie@lomagne-gersoise.com,,,,,,,,,,,
PCWORKS31,,,,,,,2 Allée Pierre-paul Riquet 31150 Lespinasse,2,Allée Pierre-paul Riquet,31150,31293,Lespinasse,Haute-Garonne,Occitanie,43.707551,1.385597,,Non,,,,,,,,,,,,,,APTIC
Isis (epicerie solidaire),,,Association,,,,39 rue Lamartine 11200 Lezignan,39,Rue Lamartine,11200,11203,Lézignan-Corbières,Aude,Occitanie,43.202429,2.757544,,Non,,,,,,,,,,,,,,
MJC Lezignan Corbières,,,Association,,,,25 Rue Marat 11200 Lezignan Corbières,25,Rue Marat,11200,11203,Lézignan-Corbières,Aude,Occitanie,43.199696,2.757916,,Non,0468270334,,mjc.lezignan.corbieres@wanadoo.fr,www.mjc-lezignan-corbieres.com,,08h - 20h; 08h - 20h; 08h - 20h; 08h - 20h; 08h - 20h; 08h - 13h; ,Mo 08:00-20:00; Tu 08:00-20:00; We 08:00-20:00; Th 08:00-20:00; Fr 08:00-20:00; Sa 08:00-13:00,,,,,,,
C N S Communications,,,,,,,9 Rue de la Foret 31600 Lherm,9,Rue de la Foret,31600,31299,Lherm,Haute-Garonne,Occitanie,43.427296,1.211384,,Non,,,,,,,,,,,,,,APTIC
SAPIE,,,,,,,7 rue du Cougaing 11300 Limoux,7,Rue du Cougaing,11300,11206,Limoux,Aude,Occitanie,43.055492,2.212835,,Non,0468747330,,sapie@sapie.coop,http://sapie.coop,,8h30 à-18h30; 8h30 à-18h30; 8h30 à-18h30; 8h30 à-18h30; 8h30 à-18h30; ; ,,,,,,,,
Limouxin,MSA,,,,,,17 chemin Farinier 11300 Limoux,17,Chemin Farinier,11300,11206,Limoux,Aude,Occitanie,43.057309,2.213259,,Non,,,,,,8:30 - 12:00; 8:30 - 12:00 / 13:30 - 17:00; 8:30 - 12:00; 8:30 - 12:00; 8:30 - 12:00 / 13:30 - 16:30; -; ,"Mo 08:30-12:00; Tu 08:30-12:00,13:30-17:00; We 08:30-12:00; Th 08:30-12:00; Fr 08:30-12:00,13:30-16:30",,,,,,,France Services
TIERS LIEUX LIMOUX,,,,,,,7  rue du Cougaing 11300 Limoux,7,Rue du Cougaing,11300,11206,Limoux,Aude,Occitanie,43.055492,2.212835,,Non,,,florence.tholly@sapie.coop,,,,,,,,,,,
CCAS Lourdes,,,"Commune (Ville, CCAS, Centre Culturel...)",,,,2 Rue de l'Hôtel de Ville 65100 Lourdes,2,Rue de l'Hôtel de Ville,65100,65286,Lourdes,Hautes-Pyrénées,Occitanie,43.091652,-0.045258,,Non,0562946565,,,,,,,,,,,,,
Centre social Lourdes,,,,,,,2 Rue de l'Hôtel de Ville 65100 Lourdes,2,Rue de l'Hôtel de Ville,65100,65286,Lourdes,Hautes-Pyrénées,Occitanie,43.091652,-0.045258,,Non,0562946565,,,https://www.lourdes.fr/enfance-jeunesse/l-espace-vie-citoyenne-jeunesse/3079-le-centre-social-jean-zay,,,,,,,,,,
SAGV65,,,,,,,17  avenue Joffre 65100 Lourdes,,Avenue du Maréchal Joffre,65100,65286,Lourdes,Hautes-Pyrénées,Occitanie,43.094593,-0.045855,,Non,,,,,,,,,,,,,,
Cyber-base Lourdes,,,,,,,65100 Lourdes,,Lourdes,65100,65286,Lourdes,Hautes-Pyrénées,Occitanie,43.114673,-0.068912,,Non,,,barmelle@cyber-base.org,,,,,,,,,,,
Cyberbase et médiathèque,,,,,,,place du champ commun 65100 Lourdes,,Place du Champ Commun,65100,65286,Lourdes,Hautes-Pyrénées,Occitanie,43.094208,-0.046092,,Non,0562949942,,,,,,,,,,,,,
Restos du Cœur,,,,,Association,,2 rue du Tydos 65100 Lourdes,2,Rue du Tydos,65100,65286,Lourdes,Hautes-Pyrénées,Occitanie,43.094998,-0.036595,,Non,,,,,,,,,,,,,,
Maison Départementale de la Solidarité,,,,,,,19 boulevard rue Cazenave 65100 Lourdes,19,Boulevard Roger Cazenave,65100,65286,Lourdes,Hautes-Pyrénées,Occitanie,43.09093,-0.048989,,Non,0531743560,,,,,,,,,,,,,
Luc,,,,,,,19 rue du Pic du Midi 65190 Luc,19,Rue du Pic du Midi,65190,65290,Luc,Hautes-Pyrénées,Occitanie,43.152955,0.176922,,Non,,,,,,,,,,,,,,France Services
Cyber-base Luz Saint Sauveur,,,,,,,65120 Luz Saint Sauveur,,Luz-Saint-Sauveur,65120,65295,Luz-Saint-Sauveur,Hautes-Pyrénées,Occitanie,42.853868,-0.005763,,Non,,,,,,,,,,,,,,
Luz-Saint-Sauveur,,,,,,,Maison Gradet-Poque - Mairie de Luz Saint Sauveur 65120 Luz Saint Sauveur,,Avenue Saint Sauveur,65120,65295,Luz-Saint-Sauveur,Hautes-Pyrénées,Occitanie,42.873114,-0.003461,,Non,,,,,,,,,,,,,,
MSAP,,,,,,,Maison Gradet Poque 65120 Luz Saint Sauveur,,Rue du Pont de Luz,65120,65295,Luz-Saint-Sauveur,Hautes-Pyrénées,Occitanie,42.873366,-0.003336,,Non,0562922550,,,,,,,,,,,,,
Maison du Parc National et de la Vallée,,,,,,,24 place St Clément 65120 Luz Saint Sauveur,24,Place Saint Clément,65120,65295,Luz-Saint-Sauveur,Hautes-Pyrénées,Occitanie,42.870601,-0.004468,,Non,0562923838,,,,,,,,,,,,,
centre social La Maison des Quartiers,,,,,,,Léguevin,,Léguevin,31490,31291,Léguevin,Haute-Garonne,Occitanie,43.59128,1.237728,,Non,,,,,,,,,,,,,,
centre social Vallée de la Save,,,,,,,31530 Lévignac,,Lévignac,31530,31297,Lévignac,Haute-Garonne,Occitanie,43.662399,1.194495,,Non,0562138020,,centre-social.valleesave@save-touch.org,https://www.mairie-levignac.com/centre-social,,9h00 - 12h00 et de 14h00 à 17h30; 9h00 - 12h00 et de 14h00 à 17h30; 9h00 - 12h00 et de 14h00 à 17h30; 9h00 - 12h00 et de 14h00 à 17h30; 9h00 – 12h00; ; ,"Mo 09:00-12:00,14:00-17:30; Tu 09:00-12:00,14:00-17:30; We 09:00-12:00,14:00-17:30; Th 09:00-12:00,14:00-17:30; Fr 09:00-12:00",,,,,,,
L OURS BRUN,,,,,,,9 Place GAMBETTA 32600 L’isle Jourdain,9,Place Gambetta,32600,32160,L'Isle-Jourdain,Gers,Occitanie,43.614212,1.081982,,Non,,,xavier.roque@laposte.net,,,,,,,,,,,
A.P.I. en Gascogne,,,,,,,2 Avenue du Courdé 32600 L’isle Jourdain,2,Avenue du Courde,32600,32160,L'Isle-Jourdain,Gers,Occitanie,43.612469,1.088924,,Non,,,,,,,,,,,,,,
Val de Gers,Communauté de Communes Val de Gers,,Administration / Collectivité territoriale,,,,16 Avenue Elysée Duffréchou 32140 Masseube,16,Avenue Elysée Duffréchou,32140,32242,Masseube,Gers,Occitanie,43.427777,0.578462,,Non,,,,,,-; 10:00 - 13:00; 10:00 - 13:00 / 14:00 - 18:00; 10:00 - 13:00; 10:00 - 13:00 / 14:00 - 18:00; 9:00 - 13:00; ,"Tu 10:00-13:00; We 10:00-13:00,14:00-18:00; Th 10:00-13:00; Fr 10:00-13:00,14:00-18:00; Sa 09:00-13:00",,,,,,,France Services
Cyber-Base du Val d'Adour,,,,,,,65700 Maubourguet,,Maubourguet,65700,65304,Maubourguet,Hautes-Pyrénées,Occitanie,43.465633,0.032828,,Non,,,cyberbase@cc-valdadour.com,,,,,,,,,,,
Maubourguet,CC Adour Madiran,,Administration / Collectivité territoriale,,,,179 Place de la Libération 65700 Maubourguet,,Place de la Libération,65700,65304,Maubourguet,Hautes-Pyrénées,Occitanie,43.46935,0.034708,,Non,0562960793,,cyberbase@adour-madiran.fr,,,9:00 - 12:30 / 14:00 - 16:00; 9:00 - 12:30 / 14:00 - 17:00; 9:00 - 12:30 / 16:00 - 18:00; 14:00 - 18:00; 9:00 - 12:30 / 14:00 - 18:00; -; ,"Mo 09:00-12:30,14:00-16:00; Tu 09:00-12:30,14:00-17:00; We 09:00-12:30,16:00-18:00; Th 14:00-18:00; Fr 09:00-12:30,14:00-18:00",,,,,,,France Services
MSAP,,,,,,,CAC Jean Glavanny 65700 Maubourguet,,Rue Jean Moulin,65700,65304,Maubourguet,Hautes-Pyrénées,Occitanie,43.461938,0.037512,,Non,0562960793,,,,,,,,,,,,,
Régie Rurale de Services de Fezensaguet,,,Association,,,,43  rue Gambetta 32120 Mauvezin,43,Rue Gambetta,32120,32249,Mauvezin,Gers,Occitanie,43.733173,0.880511,,Non,0562069280,,regie.mauvezin@cnlrq.org,,,,,,,,,,,
Centre Social de Merville / CCAS,,,,,,,50 rue du 19 mars 1962 31330 Merville,50,Rue du 19 Mars 1962,31330,31341,Merville,Haute-Garonne,Occitanie,43.722019,1.298805,,Non,0562134095,,,,,,,,,,,,,
Télécentre de Mirande,,,,,,,32300 Mirande,,Mirande,32300,32256,Mirande,Gers,Occitanie,43.517161,0.407006,,Non,,,coeur-dastarac@wanadoo.fr,,,,,,,,,,,
Internet Academy,,,,,,,32300 Mirande,,Mirande,32300,32256,Mirande,Gers,Occitanie,43.517161,0.407006,,Non,,,,,,,,,,,,,,
Médiathèque,,,,,,,31190 Miremont,,Miremont,31190,31345,Miremont,Haute-Garonne,Occitanie,43.372849,1.417624,,Non,0561506705,,biblio.miremont@wanadoo.fr,,,,,,,,,,,
L'ordinateur facile,,,Association,,Association,,3 rue du Rebarat 31310 Montbrun Bocage,3,Rue du Rebarat,31310,31365,Montbrun-Bocage,Haute-Garonne,Occitanie,43.127466,1.267765,,Non,0651914096,,lordinateurfacile@gmail.com,http://www.lordinateurfacile.fr/,,9 h - 14 h; 9 h - 14 h; 9 h - 14 h; 9 h - 14 h; 9 h - 14 h; 9 h - 14 h; ,,,,,,,,
SARAPP Montrejeau,,,,,,,31210 Montrejeau,,Montréjeau,31210,31390,Montréjeau,Haute-Garonne,Occitanie,43.086626,0.557622,,Non,,,,,,,,,,,,,,
Centre social Adhco,,,"Commune (Ville, CCAS, Centre Culturel...)",,,,23 rue de la gare 11330 Mouthoumet,,Rue de la Gare,11330,11260,Mouthoumet,Aude,Occitanie,42.960276,2.526948,,Non,0468701850,,adhco.developpement@orange.fr,http://www.adhco.fr/,,,,,,,,,,
Massif de Mouthoumet,ADHCO CENTRE SOCIAL,,Association,,,,23 rue de la gare 11330 Mouthoumet,,Rue de la Gare,11330,11260,Mouthoumet,Aude,Occitanie,42.960276,2.526948,,Non,0468701850,,adhco.developpement@orange.fr,,,9:00 - 12:30 / 14:00 - 17:30; 9:00 - 12:30 / 14:00 - 17:30; 9:00 - 12:30 / 14:00 - 17:30; 9:00 - 12:30 / 14:00 - 17:30; 9:00 - 12:30 / 14:00 - 17:30; -; ,"Mo 09:00-12:30,14:00-17:30; Tu 09:00-12:30,14:00-17:30; We 09:00-12:30,14:00-17:30; Th 09:00-12:30,14:00-17:30; Fr 09:00-12:30,14:00-17:30",,,,,,,France Services
9com9,,,Association,,Association,,31600 Muret,,Muret,31600,31395,Muret,Haute-Garonne,Occitanie,43.443252,1.30016,,Non,,,,,,,,,,,,,,
Nailloux - CC Terres du Lauragais,Communauté de communes,,Administration / Collectivité territoriale,,,,1 rue de la république 31560 Nailloux,1,Rue de la République,31560,31396,Nailloux,Haute-Garonne,Occitanie,43.356713,1.623405,,Non,,,,,,13:30 - 17:00; 13:30 - 17:00; 9:15 - 12:30 / 13:30 - 17:00; 13:30 - 17:00; 9:15 - 12:30 / 13:30 - 17:00; -; ,"Mo 13:30-17:00; Tu 13:30-17:00; We 09:15-12:30,13:30-17:00; Th 13:30-17:00; Fr 09:15-12:30,13:30-17:00",,,,,,,France Services
Ecole régionale deuxieme chance,,,,,,,11000 Narbonne,,Route de Narbonne,11000,11069,Carcassonne,Aude,Occitanie,43.204896,2.406431,,Non,,,,,,,,,,,,,,
Versus  Internet Café,,,,,,,11000 Narbonne,,Route de Narbonne,11000,11069,Carcassonne,Aude,Occitanie,43.204896,2.406431,,Non,,,info@versus.fr,,,,,,,,,,,
Maison de la l'Emploi et de la Formation,,,,,,,11000 Narbonne,,Route de Narbonne,11000,11069,Carcassonne,Aude,Occitanie,43.204896,2.406431,,Non,,,multimedia@mef-narbonnaise.fr,,,,,,,,,,,
Aide Mutuelle à l'Insertion,,,,,,,24 boulevard Frédéric Mistral 11000 Narbonne,24,Boulevard Frederic Mistral,11100,11262,Narbonne,Aude,Occitanie,43.186072,3.001923,,Non,0468650710,,ami-aude@orange.fr,https://ami-aude.com/index.html,,,,,,,,,,
Centre Social et Culturel Nelson MANDELA,,,,,,,4 Promenade Emilie Palomo 11000 Narbonne,4,Promenade Emilie Palomo,11100,11262,Narbonne,Aude,Occitanie,43.187463,2.985839,,Non,0468417726,,,https://www.csc-mandela.fr/,,9 h - 12 h et 14 h - 18 h 00; 9 h - 12 h et 14 h - 18 h 00; 9 h - 12 h et 14 h - 18 h 00; 9 h - 12 h et 14 h - 18 h 00; 9 h - 12 h et 14 h - 18 h 00; ; ,,,,,,,,
Le Lieu Ressources Littoral,,,,,,,Narbonne,,Narbonne,11100,11262,Narbonne,Aude,Occitanie,43.172093,3.034085,,Non,,,sp-narbonne@aude.pref.gouv.fr,,,,,,,,,,,
PIMMS du Narbonnais,Union Nationale des PIMMS,,Point Information Médiation Multi Services (PIMMS),,,,8 avenue du Maréchal Foch 11000 Narbonne,8,Avenue du Marechal Foch,11100,11262,Narbonne,Aude,Occitanie,43.187225,3.005378,,Non,0468436893,,narbonne@pimms.org,,,8:30 - 12:00 / 14:00 - 17:00; 14:00 - 17:00; 8:30 - 12:00 / 14:00 - 17:00; 14:00 - 17:00; 8:30 - 12:00 / 14:00 - 17:00; -; ,"Mo 08:30-12:00,14:00-17:00; Tu 14:00-17:00; We 08:30-12:00,14:00-17:00; Th 14:00-17:00; Fr 08:30-12:00,14:00-17:00",,,,,,,France Services
TIERS LIEUX IN’ESS LE GRAND NARBONNE,,,,,,,30 Avenue Paul Pompidor 11000 Narbonne,30,Avenue Pompidor,11100,11262,Narbonne,Aude,Occitanie,43.18231,2.978995,,Non,,,l.bullich@legrandnarbonne.com,,,,,,,,,,,
FABLAB IN'ESS,,,,,,,30 avenue Pompidor 11100 Narbonne,30,Avenue Pompidor,11100,11262,Narbonne,Aude,Occitanie,43.18231,2.978995,,Non,,,s.sole@legrandnarbonne.com,,,,,,,,,,,
INESS GRAND NARBONNE,,,,,Collectivité locale ou territoriale,,Narbonne,,Narbonne,11100,11262,Narbonne,Aude,Occitanie,43.172093,3.034085,,Non,,,service.accueil-iness@legrandnarbonne.com,,,,,,,,,,,
Association CLAN - PIJ,,,,,,,32110 Nogaro,,Nogaro,32110,32296,Nogaro,Gers,Occitanie,43.762308,-0.02944,,Non,,,pij32.nogaro@crij.org,,,,,,,,,,,
Maison des Initiatives Sociales et Culturelles,,,,,,,1 Impasse de la Gare 31820 Pibrac,,Impasse de la Gare,31820,31417,Pibrac,Haute-Garonne,Occitanie,43.621387,1.28721,,Non,,,,,,,,,,,,,,
La Poste MSAP,,,,,,,place Jean Jaures 65260 Pierreffitte Nestalas,,Place Jean Jaures,65260,65362,Pierrefitte-Nestalas,Hautes-Pyrénées,Occitanie,42.96096,-0.074149,,Non,0562922464,,msap.pierrefitte-nestalas@laposte.fr,,,,,,,,,,,
bibliothèque,,,,,,,Marie - 1erue étage  2 avenue Gén leclerc 65260 Pierreffitte Nestalas,2,Avenue General Leclerc,65260,65362,Pierrefitte-Nestalas,Hautes-Pyrénées,Occitanie,42.959162,-0.073751,,Non,0562927546,,alpsv@orange.fr,,,,,,,,,,,
Pierrefitte-Nestalas,La Poste,,La Poste,,,,Place Jean Jaurès 65260 Pierreffitte Nestalas,,Place Jean Jaures,65260,65362,Pierrefitte-Nestalas,Hautes-Pyrénées,Occitanie,42.96096,-0.074149,,Non,,,,,,9:30 - 12:00 / 13:30 - 16:45; 9:30 - 12:00 / 13:30 - 16:45; 9:30 - 12:00 / 13:30 - 16:45; 9:30 - 12:00 / 13:30 - 16:45; 9:30 - 12:00 / 13:30 - 16:45; 9:00 - 12:00; ,"Mo 09:30-12:00,13:30-16:45; Tu 09:30-12:00,13:30-16:45; We 09:30-12:00,13:30-16:45; Th 09:30-12:00,13:30-16:45; Fr 09:30-12:00,13:30-16:45; Sa 09:00-12:00",,,,,,,France Services
EREF - PIJ,,,,,,,32160 Plaisance,,Plaisance,32160,32319,Plaisance,Gers,Occitanie,43.603586,0.047299,,Non,,,,,,,,,,,,,,
Plaisance du Gers,La Poste,,La Poste,,,,38 rue de l’Adour 32160 Plaisance,38,Rue de l'Adour,32160,32319,Plaisance,Gers,Occitanie,43.605419,0.045201,,Non,,,,,,9:00 - 12:00 / 13:30 - 16:30; 9:00 - 12:00 / 13:30 - 16:30; 9:00 - 12:00 / 13:30 - 16:30; 9:00 - 12:00 / 13:30 - 16:30; 9:00 - 12:00 / 13:30 - 16:30; 9:00 - 12:00; ,"Mo 09:00-12:00,13:30-16:30; Tu 09:00-12:00,13:30-16:30; We 09:00-12:00,13:30-16:30; Th 09:00-12:00,13:30-16:30; Fr 09:00-12:00,13:30-16:30; Sa 09:00-12:00",,,,,,,France Services
centre social Sesame,,,,,,,31830 Plaisance du Touch,,Plaisance-du-Touch,31830,31424,Plaisance-du-Touch,Haute-Garonne,Occitanie,43.565519,1.285013,,Non,,,,,,,,,,,,,,
bibliothèque,,,,,,,rue des écoles 65350 Pouyastruc,,Rue des Ecoles,65350,65369,Pouyastruc,Hautes-Pyrénées,Occitanie,43.265105,0.176907,,Non,0562336739,,bibliotheque-pouyastruc@orange.fr,,,,,,,,,,,
Solidarité Numérique CCAS,,,"Commune (Ville, CCAS, Centre Culturel...)",,,,31190 Puydaniel,,Puydaniel,31190,31442,Puydaniel,Haute-Garonne,Occitanie,43.330519,1.420281,,Non,0561507244,,mairiepuydaniel@wanadoo.fr,https://www.mairie-puydaniel.fr/,,,,,Accès libre,,,,,
Rabastens en Bigorre,CC Adour Madiran,,Administration / Collectivité territoriale,,,,16 place centrale 65140 Rabastens de Bigorre,16,Place Centrale,65140,65375,Rabastens-de-Bigorre,Hautes-Pyrénées,Occitanie,43.387473,0.150968,,Non,,,,,,8:30 - 12:00; 8:30 - 12:00 / 13:30 - 17:00; 8:30 - 12:00; 8:30 - 12:00 / 13:30 - 17:00; 8:30 - 12:00; -; ,"Mo 08:30-12:00; Tu 08:30-12:00,13:30-17:00; We 08:30-12:00; Th 08:30-12:00,13:30-17:00; Fr 08:30-12:00",,,,,,,France Services
MSAP Pole Public des Services,,,,,,,16 place centrale 65140 Rabastens de Bigorre,16,Place Centrale,65140,65375,Rabastens-de-Bigorre,Hautes-Pyrénées,Occitanie,43.387473,0.150968,,Non,0562965451,,,,,,,,,,,,,
Le pic,,,Association,,,,Ramonville,,Ramonville-Saint-Agne,31520,31446,Ramonville-Saint-Agne,Haute-Garonne,Occitanie,43.544235,1.4746,,Non,,,,,,,,,,,,,,
Le F@bRiquet,,,,,,,14 rue Hermes 31520 Ramonville,14,Rue Hermes,31520,31446,Ramonville-Saint-Agne,Haute-Garonne,Occitanie,43.550024,1.485155,,Non,0561731022,,ariane.rudelle@planete-sciences.org,http://www.fabriquet.fr/web/,,; 14h-22h; 13h-18h; Sur RDV; 13h-18h; 13h-20h; ,,,,,,,,
Rieumes - CC Cœur de Garonne,Communauté de Communes Cœur de Garonne,,Administration / Collectivité territoriale,,,,2 Place du marché à la volaille 31370 Rieumes,2,Place du Marche a la Volaille,31370,31454,Rieumes,Haute-Garonne,Occitanie,43.413138,1.119217,,Non,,,msap@cc-coeurdegaronne.fr,,,8:30 - 12:30 / 14:00 - 18:00; 14:00 - 18:00; 8:30 - 12:30; 8:30 - 12:30; 8:30 - 12:30; -; ,"Mo 08:30-12:30,14:00-18:00; Tu 14:00-18:00; We 08:30-12:30; Th 08:30-12:30; Fr 08:30-12:30",,,,,,,France Services
Relais d'entreprise de RIEUX VOLVESTRE,,,,,,,10 rue de la Tourue de Guet 31310 Rieux Volvestre,10,Rue de la Tour de Guet,31310,31455,Rieux-Volvestre,Haute-Garonne,Occitanie,43.263571,1.188008,,Non,0672360232,,d.aumont@relais-d-entreprises.com,,,,,,,,,,,
Télécentre de Riscle,,,,,,,32400 Riscle,,Riscle,32400,32344,Riscle,Gers,Occitanie,43.640267,-0.07903,,Non,,,manonbonnet.gers@gmail.com,,,,,,,,,,,
prends toi en main,,,Association,,Association,,32380 Saint Clar,,Saint-Clar,32380,32370,Saint-Clar,Gers,Occitanie,43.888835,0.763148,,Non,,,,,,,,,,,,,,
MJC / cyber-base du Saint-Gaudinois,,,Association,,,,1 place du maréchal juin 31800 Saint Gaudens,1,Place du Marechal Juin,31800,31483,Saint-Gaudens,Haute-Garonne,Occitanie,43.109176,0.726436,,Non,0561946645,,info@mjc-st-gaudens.org,www.mjc-st-gaudens.org,,,,,,,,,,
APP Comminges-Luchonnais,,,,,,,31800 Saint Gaudens,,Saint-Gaudens,31800,31483,Saint-Gaudens,Haute-Garonne,Occitanie,43.120831,0.725049,,Non,,,,,,,,,,,,,,
Club de prévention Saint Gaudens,,,,,,,31800 Saint Gaudens,,Saint-Gaudens,31800,31483,Saint-Gaudens,Haute-Garonne,Occitanie,43.120831,0.725049,,Non,,,,,,,,,,,,,,
CyberBase de Saint Gaudens,,,,,,,31800 Saint Gaudens,,Saint-Gaudens,31800,31483,Saint-Gaudens,Haute-Garonne,Occitanie,43.120831,0.725049,,Non,,,,,,,,,,,,,,
TIERS LIEUX EN COMMINGES,,,,,,,1 place Maréchal Juin 31800 Saint Gaudens,1,Place du Marechal Juin,31800,31483,Saint-Gaudens,Haute-Garonne,Occitanie,43.109176,0.726436,,Non,0561946645,,julie@maisondelavenir.eu,,,,,,,,,,,
Cyber-base,,,,,,,1 Place du Marechal Juin 31800 Saint Gaudens,1,Place du Marechal Juin,31800,31483,Saint-Gaudens,Haute-Garonne,Occitanie,43.109176,0.726436,,Non,,,,,,,,,,,,,,APTIC
SARAPP GRETA des Hautes-Pyrénées,,,,,,,65150 Saint Laurent de Neste,,Saint-Laurent-de-Neste,65150,65389,Saint-Laurent-de-Neste,Hautes-Pyrénées,Occitanie,43.090206,0.481209,,Non,,,,,,,,,,,,,,
Maison du savoir,,,,,,,65150 Saint Laurent de Neste,,Saint-Laurent-de-Neste,65150,65389,Saint-Laurent-de-Neste,Hautes-Pyrénées,Occitanie,43.090206,0.481209,,Non,,,contact@maisondusavoir.fr,,,,,,,,,,,
FABLAB SAPIENS,,,,,,,ZA Pic Pyrénées Innovation 65150 Saint Laurent de Neste,,Avenue des Pics,65150,65389,Saint-Laurent-de-Neste,Hautes-Pyrénées,Occitanie,43.077075,0.482453,,Non,,,maxime.lagarde@neste-barousse.fr,,,,,,,,,,,
FABLAB SAPIENS,,,,,,,65150 Saint Laurent de Neste,,Saint-Laurent-de-Neste,65150,65389,Saint-Laurent-de-Neste,Hautes-Pyrénées,Occitanie,43.090206,0.481209,,Non,,,maxime.lagarde@neste-barousse.fr,,,,,,,,,,,
Centre Socioculturel et Familial ‘Les Passerelles’,,,,,,,107  avenue de Saint Pons 11120 Saint Marcel sur Aude,107,Avenue de Saint Pons,11120,11353,Saint-Marcel-sur-Aude,Aude,Occitanie,43.251553,2.914701,,Non,0468423525,,lespasserelles@cs-les-passerelles.fr,www.cs-les-passerelles.fr,,9h – 12h et 14h – 18h; 9h - 12h; 9h – 12h et 14h – 18h; 9h - 12h; 9h - 12h; ; ,"Mo 09:00-12:00,14:00-18:00; Tu 09:00-12:00; We 09:00-12:00,14:00-18:00; Th 09:00-12:00; Fr 09:00-12:00",,,,,,,France Services
CCAS,,,"Commune (Ville, CCAS, Centre Culturel...)",,,,31650 Saint Orens,,Saint-Orens-de-Gameville,31650,31506,Saint-Orens-de-Gameville,Haute-Garonne,Occitanie,43.553524,1.532526,,Non,,,,,,,,,,,,,,
Espace Pour Tous,,,,,,,31650 Saint Orens de Gameville,,Saint-Orens-de-Gameville,31650,31506,Saint-Orens-de-Gameville,Haute-Garonne,Occitanie,43.553524,1.532526,,Non,,,,,,,,,,,,,,
Médiathèque de Saint-Clar,,,,,,,place dastros 32380 Saint-Clar,,Place Dastros,32380,32370,Saint-Clar,Gers,Occitanie,43.890771,0.769521,,Non,0562074912,,mediathequestclar@orange.fr,https://fr-fr.facebook.com/mediatheque.desaintclar,,,,,,,,,,
ESPACE MEDIATION NUMERIQUE ST JEAN,,,,,,,31240 Saint-Jean,,Saint-Jean,31240,31488,Saint-Jean,Haute-Garonne,Occitanie,43.664181,1.504563,,Non,0532096837,,sylvie.blanc@mairie-saintjean.fr,,,,,,,,,,,
MJC Les Granges / Saint Jean,,,,,,,33 route d'Albi 31240 Saint-Jean,33,Route d'Albi,31240,31488,Saint-Jean,Haute-Garonne,Occitanie,43.664503,1.50383,,Non,0532096750,,,https://www.mairie-saintjean.fr/les-granges/,,,,,,,,,,
Centre Social Les Granges / Saint Jean,,,,,,,33 route d'Albi 31240 Saint-Jean,33,Route d'Albi,31240,31488,Saint-Jean,Haute-Garonne,Occitanie,43.664503,1.50383,,Non,0532096837,,,https://www.mairie-saintjean.fr/les-granges/,,,,,,,,,,
CREATEC - LES GRANGES,,,,,,,33 terue route d'Albi 31240 Saint-Jean,33,Route d'Albi,31240,31488,Saint-Jean,Haute-Garonne,Occitanie,43.664503,1.50383,,Non,,,direction@mjcstj31.fr,,,,,,,,,,,
MJC-Centre social,,,,,,,1 Rue des Glycines 31470 Saint-Lys,1,Rue des Glycines,31470,31499,Saint-Lys,Haute-Garonne,Occitanie,43.511462,1.17435,,Non,0534485691,,centresocial@saint-lys.fr,,,,,,,,,,,
Castelnaudary Lauragais Audois,ENERGIES PIEGE,,Association,,,,9 Rue des Rosiers 11410 Salles sur l'hers,9,Rue des Rosiers,11410,11371,Salles-sur-l'Hers,Aude,Occitanie,43.293559,1.782531,,Non,,,,,,8:30 - 12:00; 8:30 - 12:00 / 13:30 - 17:00; 8:30 - 12:00 / 13:30 - 17:00; 8:30 - 12:00 / 13:30 - 17:00; 8:30 - 12:00; -; ,"Mo 08:30-12:00; Tu 08:30-12:00,13:30-17:00; We 08:30-12:00,13:30-17:00; Th 08:30-12:00,13:30-17:00; Fr 08:30-12:00",,,,,,,France Services
MSAP Gestes,,,Maison de Service au Public (MSAP),,,,Samatan,,Samatan,32130,32410,Samatan,Gers,Occitanie,43.492442,0.926737,,Non,,,,,,,,,,,,,,
Le bureau Samatanais,,,,,,,32130 Samatan,,Samatan,32130,32410,Samatan,Gers,Occitanie,43.492442,0.926737,,Non,0562597102,,contact@lebureausamatanais.fr,http://www.lebureausamatanais.fr/#,,,,,,,,,,
CCAS,,,Maison de Service au Public (MSAP),,,,32130 Samatan,,Samatan,32130,32410,Samatan,Gers,Occitanie,43.492442,0.926737,,Non,,,,,,,,,,,,,,
LE BUREAU SAMATANAIS,,,,,,,6 rue de la commanderie 32130 Samatan,6,Rue de la Commanderie,32130,32410,Samatan,Gers,Occitanie,43.492673,0.931293,,Non,0633480117,,contact@lebureausamatanais.fr,,,,,,,,,,,
Sarp,CC Neste Barousse,,,,,,Maison de la Barousse 65370 Sarp,,Route de Sarp,65370,65287,Loures-Barousse,Hautes-Pyrénées,Occitanie,43.02399,0.602721,,Non,,,communaute-de-communes@neste-barousse.fr,,,9:00 - 12:30 / 14:00 - 17:00; 9:00 - 12:30 / 14:00 - 17:00; 9:00 - 12:30 / 14:00 - 17:00; 9:00 - 12:30 / 14:00 - 17:00; 9:00 - 12:30 / 14:00 - 17:00; -; ,"Mo 09:00-12:30,14:00-17:00; Tu 09:00-12:30,14:00-17:00; We 09:00-12:30,14:00-17:00; Th 09:00-12:30,14:00-17:00; Fr 09:00-12:30,14:00-17:00",,,,,,,France Services
Maison de la Communauté de communes MSAP,,,,,,,le village 65370 Sarp,,Village,65370,65407,Sarp,Hautes-Pyrénées,Occitanie,43.0128,0.584936,,Non,0562993523,,communaute-de-communes@neste-barousse.fr,,,,,,,,,,,
Espace de Vie Sociale LaMIS,,,,,,,14 rue du milieu 32120 Sarrant,14,Rue du Milieu,32120,32416,Sarrant,Gers,Occitanie,43.774131,0.928335,,Non,0542542524,,lamis@orange.fr,,,; 11h - 12h30 et 13h30 - 17h; 11h - 12h30 et 13h30 - 17h; 11h - 12h30 et 13h30 - 17h; 11h - 12h30 et 13h30 - 17h; ; ,"Tu 11:00-12:30,13:30-17:00; We 11:00-12:30,13:30-17:00; Th 11:00-12:30,13:30-17:00; Fr 11:00-12:30,13:30-17:00",,,,,,,
Val de Gers - Antenne de Seissan,Communauté de Communes Val de Gers,,Administration / Collectivité territoriale,,,,1 Place Carnot 32260 Seissan,1,Place Carnot,32260,32426,Seissan,Gers,Occitanie,43.492681,0.592072,,Non,,,accueil@cc-valdegers.fr,,,9:00 - 12:00 / 13:30 - 17:30; 9:00 - 12:00 / 13:30 - 17:30; 9:00 - 12:00 / 13:30 - 17:30; 9:00 - 12:00 / 13:30 - 17:30; 9:00 - 12:00 / 13:30 - 17:30; -; ,"Mo 09:00-12:00,13:30-17:30; Tu 09:00-12:00,13:30-17:30; We 09:00-12:00,13:30-17:30; Th 09:00-12:00,13:30-17:30; Fr 09:00-12:00,13:30-17:30",,,,,,,France Services
PIMMS - Corbières Méditerranée,Union Nationale des PIMMS,,Point Information Médiation Multi Services (PIMMS),,,,2 place de la Libération 11130 Sigean,2,Place de la Liberation,11130,11379,Sigean,Aude,Occitanie,43.0288,2.979497,,Non,0468335112,,sigean@pimms.org,,,14:00 - 17:00; 9:00 - 13:00 / 14:00 - 19:00; 9:00 - 13:00 / 14:00 - 17:00; 14:00 - 17:00; 9:00 - 12:00; -; ,"Mo 14:00-17:00; Tu 09:00-13:00,14:00-19:00; We 09:00-13:00,14:00-17:00; Th 14:00-17:00; Fr 09:00-12:00",,,,,,,France Services
LE BOUCHE A OREILLE,,,,,,,32420 Simorre,,Simorre,32420,32433,Simorre,Gers,Occitanie,43.455778,0.731679,,Non,0562055242,,contact@lebao.fr,,,,,,,,,,,
Saint-Lary-Soulan,Guichet Initiative Pluriactivité Emploi (GIPE),,Association,,,,36 rue Vincent Mir 65170 St Lary soulan,36,Rue Vincent Mir,65170,65388,Saint-Lary-Soulan,Hautes-Pyrénées,Occitanie,42.816079,0.320982,,Non,,,,,,9:00 - 12:00 / 14:00 - 17:00; 9:00 - 12:00 / 14:00 - 17:00; 9:00 - 12:00 / 14:00 - 17:00; 9:00 - 12:00 / 14:00 - 17:00; 9:00 - 12:00 / 14:00 - 17:00; -; ,"Mo 09:00-12:00,14:00-17:00; Tu 09:00-12:00,14:00-17:00; We 09:00-12:00,14:00-17:00; Th 09:00-12:00,14:00-17:00; Fr 09:00-12:00,14:00-17:00",,,,,,,France Services
MSAP Guichet Initiative Pluriactivité Emploi (GIPE),,,,,,,36 rue Vincent Mir 65170 St Lary soulan,36,Rue Vincent Mir,65170,65388,Saint-Lary-Soulan,Hautes-Pyrénées,Occitanie,42.816079,0.320982,,Non,0562400814,,,,,,,,,,,,,
Médiathèque Maison du Patrimoine,,,,,,,41 rue Vincent Mir 65170 St Lary soulan,41,Rue Vincent Mir,65170,65388,Saint-Lary-Soulan,Hautes-Pyrénées,Occitanie,42.81661,0.321888,,Non,0562408786,,accueil@patrimoine-stlary.fr,,,,,,,,,,,
bibliothèque Albert Camus,,,,,,,51  rue de la République 65600 Séméac,51,Rue de la République,65600,65417,Séméac,Hautes-Pyrénées,Occitanie,43.228308,0.105468,,Non,0562377863,,biblio.albert.camus@agglo-tlp.fr,,,,,,,,,,,
Restos du Cœur,,,,,Association,,41 rue de la République 65600 Séméac,41,Rue de la République,65600,65417,Séméac,Hautes-Pyrénées,Occitanie,43.228272,0.10468,,Non,,,,,,,,,,,,,,
Tarbes Laubadère,La Poste,,La Poste,,,,10 Avenue Antoine de Saint-exupéry 65000 Tarbes,10,Avenue Antoine de Saint-exupéry,65000,65440,Tarbes,Hautes-Pyrénées,Occitanie,43.243815,0.063489,,Non,,,,,,9:00 - 12:00 / 14:00 - 16:30; 9:00 - 12:00 / 14:00 - 16:30; 9:00 - 12:00 / 14:00 - 16:30; 9:00 - 12:00 / 14:00 - 16:30; 9:00 - 12:00 / 14:00 - 16:30; -; ,"Mo 09:00-12:00,14:00-16:30; Tu 09:00-12:00,14:00-16:30; We 09:00-12:00,14:00-16:30; Th 09:00-12:00,14:00-16:30; Fr 09:00-12:00,14:00-16:30",,,,,,,France Services
L'ADR'ESS,,,,,,,2 Boulevard Garigliano 65000 Tarbes,2,Boulevard du Garigliano,65000,65440,Tarbes,Hautes-Pyrénées,Occitanie,43.244753,0.063663,,Non,0648869140,,e.portalier@lespetitsdebrouillards.org,,,,,,,,,,,
CRESCENDO - PLURIFAB - LA MANUFACTURE,,,,,,,14 Boulevard Pierre RENAUDET 65000 Tarbes,14,Boulevard Pierre Renaudet,65000,65440,Tarbes,Hautes-Pyrénées,Occitanie,43.246035,0.08127,,Non,,,emmanuel.dubie@crescendo-tarbes.com,,,,,,,,,,,
bibliothèque Louis Aragon,,,,,,,31  rue André Fourcade 65000 Tarbes,31,Rue André Fourcade,65000,65440,Tarbes,Hautes-Pyrénées,Occitanie,43.236154,0.077966,,Non,0562443898,,,,,,,,,,,,,
bibliothèque Nelson Mandela,,,,,,,10  avenue Antoine de Saint Exupéry 65000 Tarbes,10,Avenue Antoine de Saint-exupéry,65000,65440,Tarbes,Hautes-Pyrénées,Occitanie,43.243815,0.063489,,Non,0562379920,,biblio.nelson.mandela@agglo-tlp.fr,,,,,,,,,,,
Espace Public Initiatives Citoyennes (EPIC),,,,,,,4 rue Erik Satié 65000 Tarbes,4,Rue Erik Satie,65000,65440,Tarbes,Hautes-Pyrénées,Occitanie,43.228675,0.051675,,Non,0562543872,,,,,,,,,,,,,
Association Informatique Tarbaise,,,,,Association,,7 rue André Breyer 65000 Tarbes,7,Rue André Breyer,65000,65440,Tarbes,Hautes-Pyrénées,Occitanie,43.236366,0.065331,,Non,0625394624,,,,,,,,,,,,,
St Vincent de Paul,,,,,,,14 rue Solférino 65000 Tarbes,14,Rue Solférino,65000,65440,Tarbes,Hautes-Pyrénées,Occitanie,43.239085,0.065776,,Non,0562511382,,,,,,,,,,,,,
Confédération Syndicale des Familles,,,,,,,33 rue E Ténot 65000 Tarbes,33,Rue Eugène Ténot,65000,65440,Tarbes,Hautes-Pyrénées,Occitanie,43.23479,0.081453,,Non,0562381769,,,,,,,,,,,,,
Maison Départementale de la Solidarité site des Bigerrions,,,,,Collectivité locale ou territoriale,,37 boulevard du martinet 65000 Tarbes,37,Boulevard du Martinet,65000,65440,Tarbes,Hautes-Pyrénées,Occitanie,43.238454,0.082101,,Non,0562533465,,,,,,,,,,,,,
Maison Départementale de la Solidarité site de Gaston Dreyt,,,,,Collectivité locale ou territoriale,,5 rue Gaston Dreyt 65000 Tarbes,5,Rue Gaston Dreyt,65000,65440,Tarbes,Hautes-Pyrénées,Occitanie,43.231116,0.065247,,Non,0562567302,,,,,,,,,,,,,
Maison Départementale de la Solidarité site de St Exupéry,,,,,Collectivité locale ou territoriale,,8 rue du Comminges 65000 Tarbes,8,Rue du Comminges,65000,65440,Tarbes,Hautes-Pyrénées,Occitanie,43.243403,0.066645,,Non,0531743650,,,,,,,,,,,,,
Bureau d'information Jeunesse (BIJ),,,,,,,3 rue colomès de Juillan 65000 Tarbes,3,Rue Colomès de Juillan,65000,65440,Tarbes,Hautes-Pyrénées,Occitanie,43.234617,0.07326,,Non,0562932212,,jeunesseviecitoyenne@mairie-tarbes.fr,,,,,,,,,,,
point jeunes Laub'ados,,,,,,,26 rue Guynemer 65000 Tarbes,26,Rue Georges Guynemer,65000,65440,Tarbes,Hautes-Pyrénées,Occitanie,43.242443,0.056576,,Non,0562363168,,jeunesse.nord@mairie-tarbes.fr,,,,,,,,,,,
Solidarité avec les Gens du Voyage (SAGV),,,,,,,17 avenue Joffre 65000 Tarbes,17,Avenue Maréchal Joffre,65000,65440,Tarbes,Hautes-Pyrénées,Occitanie,43.239617,0.071922,,Non,0562367644,,sagv65@wanadoo.fr,,,,,,,,,,,
atelier Canopé,,,,,,,11 rue G. Magnoac 65000 Tarbes,11,Rue Georges Magnoac,65000,65440,Tarbes,Hautes-Pyrénées,Occitanie,43.234173,0.075699,,Non,0562443636,,,,,,,,,,,,,
Adr'ESS,,,,,,,2 boulevard Gargliano 65000 Tarbes,2,Boulevard du Garigliano,65000,65440,Tarbes,Hautes-Pyrénées,Occitanie,43.244753,0.063663,,Non,0656835357,,,,,,,,,,,,,
Portes Ouvertes,,,,,,,6 cité Mouysset 65000 Tarbes,6,Cite Mouysset,65000,65440,Tarbes,Hautes-Pyrénées,Occitanie,43.225474,0.089474,,Non,0633428052,,,,,,,,,,,,,
Espace Public Numérique de la Contrée de Durban-Corbières,,,,,,,11200 Thezan des corbieres,,Thézan-des-Corbières,11200,11390,Thézan-des-Corbières,Aude,Occitanie,43.088972,2.78754,,Non,,,developpementlocal@contree-durban-corbieres.fr,,,,,,,,,,,
Bibliotheque Grand M,,,,,,,37 avenue de la Reynerie 31000 Toulouse,37,Avenue de Reynerie,31100,31555,Toulouse,Haute-Garonne,Occitanie,43.567207,1.400819,,Non,0581917940,,,www.bibliotheque.toulouse.fr,,,,,,,,,,
Combustible numérique,,,Association,,Association,,31000 Toulouse,,Quai de Tounis,31000,31555,Toulouse,Haute-Garonne,Occitanie,43.594865,1.440633,,Non,,,contact@combustible.fr,,,,,,,,,,,APTIC
Trajectoire vers l'emploi,,,Association,,,,31000 Toulouse,,Quai de Tounis,31000,31555,Toulouse,Haute-Garonne,Occitanie,43.594865,1.440633,,Non,,,,,,,,,,,,,,
Lieu Ressource Formation,,,Association,,,,31000 Toulouse,,Quai de Tounis,31000,31555,Toulouse,Haute-Garonne,Occitanie,43.594865,1.440633,,Non,,,,,,,,,,,,,,
7 notre quartier,,,Association,,Association,,31000 Toulouse,,Quai de Tounis,31000,31555,Toulouse,Haute-Garonne,Occitanie,43.594865,1.440633,,Non,,,,,,,,,,,,,,
CSF – Section Mirail,,,Association,,Association,,14 cheminement le Tintoret 31000 Toulouse,14,Cheminement le Tintoret,31100,31555,Toulouse,Haute-Garonne,Occitanie,43.561405,1.398273,,Non,,,,www.csfmirailblf.wixsite.com/csfmirail,,,,,,,,,,
ADPAM,,,Association,,Association,,31000 Toulouse,,Quai de Tounis,31000,31555,Toulouse,Haute-Garonne,Occitanie,43.594865,1.440633,,Non,,,,,,,,,,,,,,
Mieux Vivre Ensemble à la Gloire,,,Association,,Association,,2 rue du général Baurot 31000 Toulouse,2,Rue du Général Baurot,31500,31555,Toulouse,Haute-Garonne,Occitanie,43.607658,1.470667,,Non,,,,,,,,,,,,,,
Mission Locale,,,Association,,Association,,31000 Toulouse,,Quai de Tounis,31000,31555,Toulouse,Haute-Garonne,Occitanie,43.594865,1.440633,,Non,,,,,,,,,,,,,,
ASTREE,,,Association,,Association,,31000 Toulouse,,Quai de Tounis,31000,31555,Toulouse,Haute-Garonne,Occitanie,43.594865,1.440633,,Non,,,,,,,,,,,,,,
La case de santé,,,Association,,Association,,17 place Arnaud Bernard 31000 Toulouse,17,Place Arnaud Bernard,31000,31555,Toulouse,Haute-Garonne,Occitanie,43.610785,1.439371,,Non,0561236235,,contact@casedesante.org,http://casedesante.org/lacase_horaires.html,,,,,,,,,,
AFEV,,,Association,,Association,,31000 Toulouse,,Quai de Tounis,31000,31555,Toulouse,Haute-Garonne,Occitanie,43.594865,1.440633,,Non,,,pole.toulouse@afev.org,,,,,,,,,,,
Café social,,,Association,,Association,,38 rue Roquelaine 31000 Toulouse,38,Rue Roquelaine,31000,31555,Toulouse,Haute-Garonne,Occitanie,43.6114,1.44663,,Non,0618570252,,,,,,,,,,,,,
Mairie de quartier de Serveyrolles – Soupetard,,,"Commune (Ville, CCAS, Centre Culturel...)",,,,31000 Toulouse,,Quai de Tounis,31000,31555,Toulouse,Haute-Garonne,Occitanie,43.594865,1.440633,,Non,,,,,,,,,,,,,,
Maison de la citoyenneté Centre,,,"Commune (Ville, CCAS, Centre Culturel...)",,,,5 rue Paul Mériel 31000 Toulouse,5,Rue Paul Mériel,31000,31555,Toulouse,Haute-Garonne,Occitanie,43.603967,1.448082,,Non,,,,,,,,,,,,,,
CCAS,,,"Commune (Ville, CCAS, Centre Culturel...)",,,,2 bis rue de belfort 31000 Toulouse,2 bis,Rue de Belfort,31000,31555,Toulouse,Haute-Garonne,Occitanie,43.608668,1.452002,,Non,0561588585,,,,,,,,,,,,,
Centre d'Animation Soupetard,,,,,,,31000 Toulouse,,Quai de Tounis,31000,31555,Toulouse,Haute-Garonne,Occitanie,43.594865,1.440633,,Non,,,,,,,,,,,,,,
MediPass,,,,,,,31000 Toulouse,,Quai de Tounis,31000,31555,Toulouse,Haute-Garonne,Occitanie,43.594865,1.440633,,Non,,,medipass@free.fr,,,,,,,,,,,
SAVIF,,,,,,,31000 Toulouse,,Quai de Tounis,31000,31555,Toulouse,Haute-Garonne,Occitanie,43.594865,1.440633,,Non,,,savifs@free.fr,,,,,,,,,,,
CPAM Bagatelle,,,"Organisme de sécurité sociale (CAF, CPAM, CARSAT, MSA...)",,,,33 rue du Lot 31100 Toulouse,33,Rue du Lot,31100,31555,Toulouse,Haute-Garonne,Occitanie,43.580461,1.410717,,Non,,,,ameli.fr,,,,,,,,,,
Partage Faourette,,,,,,,13 rue de l'ukraine 31100 Toulouse,13,Rue de l'Ukraine,31100,31555,Toulouse,Haute-Garonne,Occitanie,43.579038,1.414906,,Non,0534601316,,,,,,,,,,,,,
Pôle Emploi La Cepiere,,,Pôle Emploi,,,,4 Chemin du Pigeonnierue de Cepière 31100 Toulouse,4,Chemin du Pigeonnier de la Cépière,31100,31555,Toulouse,Haute-Garonne,Occitanie,43.586132,1.400742,,Non,3949,,,www.pole-emploi.fr,,,,,,,,,,
"Pôle Emploi
Bellefontaine",,,Pôle Emploi,,,,63 allées de Bellefontaine 31100 Toulouse,63,Allée de Bellefontaine,31100,31555,Toulouse,Haute-Garonne,Occitanie,43.565759,1.399923,,Non,3949,,,www.pole-emploi.fr,,,,,,,,,,
APSEM,,,Association,,Association,,3 rue Erik SATIE BP 35711 31100 Toulouse,3,Rue Erik Satie,31100,31555,Toulouse,Haute-Garonne,Occitanie,43.568096,1.404642,,Non,0534603940,,apsem2@wanadoo.fr,http://apsem-formation.fr/,,8H - 17 h; 8H - 17 h; 8H - 17 h; 8H - 17 h; 8H - 17 h; 8H - 17 h; ,,,,,,,,
Bell'Arc en Ciel,,,Association,,Association,,14 passage G Duhamel 31100 Toulouse,14,Passage Georges Duhamel,31100,31555,Toulouse,Haute-Garonne,Occitanie,43.563623,1.394212,,Non,0966825584,,assobellarcenciel@gmail.com,,,,,,,,,,,
Maison des Solidarites,,,,,,,9 rue du Doyen Lefebvre 31100 Toulouse,9,Rue du Doyen Lefebvre,31100,31555,Toulouse,Haute-Garonne,Occitanie,43.566876,1.396803,,Non,,,,,,,,,,,,,,
Regie de quartier Bellefontaine Services,,,Association,,Association,,41 rue Rimont 31100 Toulouse,,Rue de Rimont,31100,31555,Toulouse,Haute-Garonne,Occitanie,43.56091,1.404452,,Non,0953178871,,bellefontaine.toulouse@cnlrq.org,www.bellefontaine-services.com,,,,,,,,,,
Conciergerie solidaire Desbals services,,,Association,,Association,,135 rue henri desbals 31100 Toulouse,135,Rue Henri Desbals,31100,31555,Toulouse,Haute-Garonne,Occitanie,43.581193,1.413177,,Non,0562141255,,desbals-services@wanadoo.fr,,,,,,,,,,,
Les imaginations fertiles,,,Association,,Association,,31100 Toulouse,,Rue Marie France Brive,31100,31555,Toulouse,Haute-Garonne,Occitanie,43.580552,1.369272,,Non,0561409216,,,,,,,,,,,,,
Assos,,,Association,,Association,,31100 Toulouse,,Rue Marie France Brive,31100,31555,Toulouse,Haute-Garonne,Occitanie,43.580552,1.369272,,Non,,,,,,,,,,,,,,
"Regie de quartier
Reynerie Services",,,Association,,Association,,14 avenue Winston Churchill 31100 Toulouse,14,Avenue Winston Churchill,31100,31555,Toulouse,Haute-Garonne,Occitanie,43.57025,1.402023,,Non,,,reynerie-toulouse@cnlrq.org,www.reynerie-services.com,,,,,,,,,,
Asso,,,Association,,Association,,31100 Toulouse,,Rue Marie France Brive,31100,31555,Toulouse,Haute-Garonne,Occitanie,43.580552,1.369272,,Non,,,,,,,,,,,,,,
Alliances et Cultures MUP,,,Association,,Association,,14 chemin du Mirail 31100 Toulouse,14,Chemin du Mirail,31100,31555,Toulouse,Haute-Garonne,Occitanie,43.58124,1.400011,,Non,0561446763,,accueil.mup@alliancesetcultures.org,,,,,,,,,,,
Mission Locale Mirail,,,Association,,Association,,31100 Toulouse,,Rue Marie France Brive,31100,31555,Toulouse,Haute-Garonne,Occitanie,43.580552,1.369272,,Non,,,,,,,,,,,,,,
Lien horizon danse,,,Association,,Association,,31100 Toulouse,,Rue Marie France Brive,31100,31555,Toulouse,Haute-Garonne,Occitanie,43.580552,1.369272,,Non,,,,,,,,,,,,,,
Maison de l'initiative,,,Association,,Association,,31100 Toulouse,,Rue Marie France Brive,31100,31555,Toulouse,Haute-Garonne,Occitanie,43.580552,1.369272,,Non,0534638110,,,,,,,,,,,,,
N pays Okhan,,,Association,,Association,,31100 Toulouse,,Rue Marie France Brive,31100,31555,Toulouse,Haute-Garonne,Occitanie,43.580552,1.369272,,Non,,,,,,,,,,,,,,
Parle avec elles,,,Association,,Association,,2 rue Jean Gilles 31100 Toulouse,2,Rue Jean Gilles,31100,31555,Toulouse,Haute-Garonne,Occitanie,43.572437,1.401823,,Non,,,,,,,,,,,,,,
L'Ecole et Nous,,,Association,,Association,,10 cheminement Le Tintoret 31100 Toulouse,10,Cheminement le Tintoret,31100,31555,Toulouse,Haute-Garonne,Occitanie,43.561224,1.398586,,Non,,,assoecoleetnous@gmail.com,www.ecoleetnous.wixsite.com,,,,,,,,,,
Bas d'immeubles,,,Association,,Association,,3 chemin Vincent d'Indy 31100 Toulouse,3,Cheminement Vincent d'Indy,31100,31555,Toulouse,Haute-Garonne,Occitanie,43.570219,1.406308,,Non,,,bas.im@wanadoo.fr,,,,,,,,,,,
Voir et comprendre,,,Association,,Association,,31100 Toulouse,,Rue Marie France Brive,31100,31555,Toulouse,Haute-Garonne,Occitanie,43.580552,1.369272,,Non,,,voir.comprendre@voiretcomprendre.fr,,,,,,,,,,,
Centre social municipal Bellefontaine Lafourguette,,,"Commune (Ville, CCAS, Centre Culturel...)",,,,3 impasse Foulquier 31100 Toulouse,3,Impasse François Foulquier,31100,31555,Toulouse,Haute-Garonne,Occitanie,43.565354,1.40215,,Non,,,,,,,,,,,,,,
Centre social alliances & Cultures Mirail rive droite,,,"Commune (Ville, CCAS, Centre Culturel...)",,,,2 cheminement andré messager 31100 Toulouse,,Cheminement André Messager,31100,31555,Toulouse,Haute-Garonne,Occitanie,43.572773,1.406215,,Non,0561446763,,,,,,,,,,,,,
"Centre social
CAF Reynerie",,,"Commune (Ville, CCAS, Centre Culturel...)",,,,15 place Abbal 31100 Toulouse,15,Place André Abbal,31100,31555,Toulouse,Haute-Garonne,Occitanie,43.571282,1.402395,,Non,,,,,,,,,,,,,,
Espaces Seniors Connectes,,,,,,,14 place Abbal 31100 Toulouse,14,Place André Abbal,31100,31555,Toulouse,Haute-Garonne,Occitanie,43.571328,1.401353,,Non,,,,,,,,,,,,,,
point information jeunesse (PIJ) Mirail,,,,,,,6 chemin Edgarue Varese 31100 Toulouse,6,Cheminement Edgard Varèse,31100,31555,Toulouse,Haute-Garonne,Occitanie,43.573614,1.40405,,Non,0561724537,,mespij.toulouse@crij.org,www.ij-mirail.org,,,,,,,,,,
PIJ,,,,,,,31100 Toulouse,,Rue Marie France Brive,31100,31555,Toulouse,Haute-Garonne,Occitanie,43.580552,1.369272,,Non,,,,,,,,,,,,,,
MCEF,,,,,,,57 allées de Bellefontaine 31100 Toulouse,57,Allée de Bellefontaine,31100,31555,Toulouse,Haute-Garonne,Occitanie,43.565245,1.400657,,Non,,,,,,,,,,,,,,
maison des solidaritésBorderouge,,,,,Collectivité locale ou territoriale,,4 rue françoise d'eaubonne 31200 Toulouse,4,Rue Françoise d'Eaubonne,31200,31555,Toulouse,Haute-Garonne,Occitanie,43.642506,1.453359,,Non,0534361700,,,,,,,,,,,,,
LA FABRIQUE SOLIDAIRE DES MINIMES (FA SOL MI),,,Association,,Association,,local des Mazades 29 bis avenue des Mazades 31200 Toulouse,29 bis,Avenue des Mazades,31200,31555,Toulouse,Haute-Garonne,Occitanie,43.623129,1.441383,,Non,0561253828,,,www.lafabriquesolidaire.org,,9h30 - 12h30 et 13h30 - 17h; 9h30 - 12h30 et 13h30 - 17h; 9h30 - 12h30 et 13h30 - 17h; 9h30 - 12h30 et 13h30 - 17h; 9h30 - 12h30 et 13h30 - 17h; 9h30 - 12h30 et 13h30 - 17h; ,"Mo 09:30-12:30,13:30-17:00; Tu 09:30-12:30,13:30-17:00; We 09:30-12:30,13:30-17:00; Th 09:30-12:30,13:30-17:00; Fr 09:30-12:30,13:30-17:00; Sa 09:30-12:30,13:30-17:00",,,,,,,APTIC
Pole Emploi Borderouge,,,Pôle Emploi,,,,6 rue françoise d'eaubonne 31200 Toulouse,6,Rue Françoise d'Eaubonne,31200,31555,Toulouse,Haute-Garonne,Occitanie,43.643232,1.453016,,Non,,,,www.pole-emploi.fr,,,,,,,,,,
Parole expression,,,Association,,Association,,19 rue Marc Arcis 31200 Toulouse,19,Rue Marc Arcis,31200,31555,Toulouse,Haute-Garonne,Occitanie,43.623632,1.43616,,Non,0582956780,,,paroleexpression.fr,,,,Étrangers,,,,,,
maison des solidaritésMinimes,,,,,Collectivité locale ou territoriale,,33 rue joseph jacquard 31200 Toulouse,33,Rue Joseph Jacquard,31200,31555,Toulouse,Haute-Garonne,Occitanie,43.623466,1.427715,,Non,0562727780,,,,,,,,,,,,,
Secours populaire,,,Association,,Association,,147 avenue des etats unis 31200 Toulouse,147,Avenue des Etats Unis,31200,31555,Toulouse,Haute-Garonne,Occitanie,43.63554,1.43059,,Non,0534403440,,,,,,,,,,,,,
Secours catholique,,,Association,,Association,,place du marche aux cochons 31200 Toulouse,,Place du Marché aux Cochons,31200,31555,Toulouse,Haute-Garonne,Occitanie,43.620334,1.435406,,Non,0534256740,,,,,,,,,,,,,
point information jeunesse (PIJ) Quartier Nord,,,Association,,Association,,118 Boulevard Pierre et Marie Curie 31200 Toulouse,118,Boulevard Pierre et Marie Curie,31200,31555,Toulouse,Haute-Garonne,Occitanie,43.626305,1.43686,,Non,0562722378,,cyberbasetoulousenord@orange.fr,http://www.pijtoulousenord.org,,,,,,,,,,
Entr'act solidarite,,,Association,,Association,,148 avenue de fronton 31200 Toulouse,148,Avenue de Fronton,31200,31555,Toulouse,Haute-Garonne,Occitanie,43.637631,1.433421,,Non,0561555926,,,,,,,,,,,,,
Mission Locale Antenne quartier nord,,,Association,,Association,,1 rue ernest renan 31200 Toulouse,,Rue Ernest Renan,31200,31555,Toulouse,Haute-Garonne,Occitanie,43.628251,1.445023,,Non,0561575992,,,,,,,,,,,,,
Centre social Alliances & Cultures Cap Nord,,,"Commune (Ville, CCAS, Centre Culturel...)",,,,12 rue Clouet 31200 Toulouse,12,Rue Marcel Clouet,31200,31555,Toulouse,Haute-Garonne,Occitanie,43.631471,1.43278,,Non,0561133596,,alliancesetculturesnord@yahoo.fr,www.alliancesetcultures.ouvaton.org,,,,,,,,,,
CCPS et CARMI,,,"Commune (Ville, CCAS, Centre Culturel...)",,,,44 chemin des izards 31200 Toulouse,44,Chemin des Izards,31200,31555,Toulouse,Haute-Garonne,Occitanie,43.639736,1.4445,,Non,0562724850,,clshp@ccpst.org carmi@ccpst.org,,,,,,,,,,,
Alliances et Cultures Les Troênes,,,"Commune (Ville, CCAS, Centre Culturel...)",,,,69 rue des Troênes 31200 Toulouse,69,Rue des Troènes,31200,31555,Toulouse,Haute-Garonne,Occitanie,43.617705,1.414786,,Non,0561571471,,,,,,,,,,,,,
Antenne CCPS Picarel,,,"Commune (Ville, CCAS, Centre Culturel...)",,,,26 allées Django Reinhard 31200 Toulouse,,Allée Django Reinhardt,31200,31555,Toulouse,Haute-Garonne,Occitanie,43.648485,1.410764,,Non,0561704562,,,,,,,,,,,,,
Antenne CCPS Les Chênes,,,"Commune (Ville, CCAS, Centre Culturel...)",,,,49 rue des mésanges 31200 Toulouse,49,Rue des Mésanges,31200,31555,Toulouse,Haute-Garonne,Occitanie,43.660754,1.411986,,Non,0562754629,,,,,,,,,,,,,
Centre social Izards/Borderouge,,,,,,,1 place Micoulaud 31200 Toulouse,1,Place des Mufliers,31200,31555,Toulouse,Haute-Garonne,Occitanie,43.634765,1.435042,,Non,0567041480,,,,,,,,,,,,,
MJC Croix-Daurade,,,,,,,31200 Toulouse,,Rue Roger Berbel,31200,31555,Toulouse,Haute-Garonne,Occitanie,43.647958,1.449112,,Non,,,,http://www.mjccroixdaurade.fr/,,,,,,,,,,
CSF Cugnaux,,,,,,,31270 Toulouse,,Route de Toulouse,31270,31157,Cugnaux,Haute-Garonne,Occitanie,43.553652,1.356698,,Non,,,,,,,,,,,,,,
maison des solidaritésCastanet-Tolosan,,,,,,,68 avenue de Lauragais 31300 Toulouse,68,Avenue du Lauragais,31400,31555,Toulouse,Haute-Garonne,Occitanie,43.579762,1.456133,,Non,0562719180,,,,,,,,,,,,,
Centre Social – ASSQOT,,,"Commune (Ville, CCAS, Centre Culturel...)",,,,18 rue Vincent Scotto 31300 Toulouse,18,Rue Vincent Scotto,31300,31555,Toulouse,Haute-Garonne,Occitanie,43.598293,1.416982,,Non,,,,www.assqot.com,,,,,,,,,,
Centre social annexe  Arenes romaines,,,"Commune (Ville, CCAS, Centre Culturel...)",,,,107 avenue des Arènes Romaines 31300 Toulouse,107,Avenue des Arènes Romaines,31300,31555,Toulouse,Haute-Garonne,Occitanie,43.615071,1.396945,,Non,0561160946,,,,,,,,,,,,,
CCPS Hameau de fleurance,,,"Commune (Ville, CCAS, Centre Culturel...)",,,,12 impasse benozzi 31300 Toulouse,12,Impasse Jeanne Benozzi,31300,31555,Toulouse,Haute-Garonne,Occitanie,43.603236,1.353572,,Non,0562724850,,,,,,,,,,,,,
Point Infomartions Jeunesse Empalot,,,"Commune (Ville, CCAS, Centre Culturel...)",,,,31400 Toulouse,,Impasse Jacques Piou,31400,31555,Toulouse,Haute-Garonne,Occitanie,43.575003,1.444619,,Non,,,,,,,,,,,,,,
Mediatheque Empalot,,,"Commune (Ville, CCAS, Centre Culturel...)",,,,40 avenue jean moulin 31400 Toulouse,40,Avenue Jean Moulin,31400,31555,Toulouse,Haute-Garonne,Occitanie,43.578868,1.441595,,Non,,,,,,,,,,,,,,
maison des citoyennetes Niel,,,"Commune (Ville, CCAS, Centre Culturel...)",,,,81 rue saint roch 31400 Toulouse,81,Rue Saint Roch,31400,31555,Toulouse,Haute-Garonne,Occitanie,43.578796,1.44655,,Non,,,,,,,,,,,,,,
Bibliotheque Mediatheque Rangueil,,,"Commune (Ville, CCAS, Centre Culturel...)",,,,19 rue claude forbin 31400 Toulouse,19,Rue Claude de Forbin,31400,31555,Toulouse,Haute-Garonne,Occitanie,43.574867,1.463951,,Non,,,,,,,,,,,,,,
Bib' Insa,,,,,,,135 avenue de rangueil 31400 Toulouse,135,Avenue de Rangueil,31400,31555,Toulouse,Haute-Garonne,Occitanie,43.569183,1.466106,,Non,,,,,,,,,,,,,,
Bibliotheque Universitaire de Sciences,,,,,,,118 rte de narbonne 31400 Toulouse,118,Route de Narbonne,31400,31555,Toulouse,Haute-Garonne,Occitanie,43.561566,1.463029,,Non,,,,,,,,,,,,,,
Avenir Nouvelle maison des chomeurs,,,Association,,Association,,115 rue bonnat 31400 Toulouse,115,Rue Bonnat,31400,31555,Toulouse,Haute-Garonne,Occitanie,43.581165,1.45768,,Non,0534313311,,avenir.toulouse@wanadoo.fr,https://maisondeschomeurs.org,,9h-12h; 9h-12h; 9h-12h; 9h-12h; 9h-12h; ; ,Mo 09:00-12:00; Tu 09:00-12:00; We 09:00-12:00; Th 09:00-12:00; Fr 09:00-12:00,,,,,,,
Maison Des Solidarités Empalot,,,,,Collectivité locale ou territoriale,,32 allée henri sellier 31400 Toulouse,32,Allée Henri Sellier,31400,31555,Toulouse,Haute-Garonne,Occitanie,43.577351,1.43808,,Non,0561147600,,,,,,,,,,,,,
Centre social Jean Moulin / Empalot (CAF),,,,,,,38 avenue jean moulin 31400 Toulouse,38,Avenue Jean Moulin,31400,31555,Toulouse,Haute-Garonne,Occitanie,43.579108,1.441695,,Non,0534319442,,,https://www.facebook.com/cs.empalot/,,8h30 - 17h30; 8h30 - 17h30; 8h30 - 17h30; 8h30 - 17h30; 8h30 - 17h30; 8h30 - 17h30; ,Mo 08:30-17:30; Tu 08:30-17:30; We 08:30-17:30; Th 08:30-17:30; Fr 08:30-17:30; Sa 08:30-17:30,,Accès libre,,,,,
Mission Locale Empalot,,,"Commune (Ville, CCAS, Centre Culturel...)",,,,1 place commerciale 31400 Toulouse,,Place Commerciale de Jolimont,31500,31555,Toulouse,Haute-Garonne,Occitanie,43.613548,1.460993,,Non,,,,www.mltoulouse.org,,,,,,,,,,
Pole emploi St Michel,,,Pôle Emploi,,,,2 avenue de l'urss 31400 Toulouse,2,Avenue de l'Urss,31400,31555,Toulouse,Haute-Garonne,Occitanie,43.583959,1.448217,,Non,,,,,,,,,,,,,,
Pole emploi La plaine,,,Pôle Emploi,,,,1 impasse rene couzinet 31400 Toulouse,1,Impasse René Couzinet,31500,31555,Toulouse,Haute-Garonne,Occitanie,43.582804,1.492372,,Non,,,,,,,,,,,,,,
Rangueil club de prevention,,,,,,,34 avenue de Rangueil 31400 Toulouse,34,Avenue de Rangueil,31400,31555,Toulouse,Haute-Garonne,Occitanie,43.576559,1.454654,,Non,,,,,,,,,,,,,,
Centre Epide,,,,,,,3 avenue du professeurue Joseph Ducuing 31400 Toulouse,,Rue Joseph Guepin,31400,31555,Toulouse,Haute-Garonne,Occitanie,43.584584,1.465203,,Non,0581608989,,,www.epide.fr,,,,,,,,,,
Rectorat,,,,,,,75 rue saint roch 31400 Toulouse,75,Rue Saint Roch,31400,31555,Toulouse,Haute-Garonne,Occitanie,43.578426,1.447024,,Non,,,,,,,,,,,,,,
MJC du Pont des demoiselles,,,Association,,Association,,31400 Toulouse,,Impasse Jacques Piou,31400,31555,Toulouse,Haute-Garonne,Occitanie,43.575003,1.444619,,Non,,,,,,,,,,,,,,
Relai 2A (association Le relai),,,Association,,Association,,15 rue du japon 31400 Toulouse,15,Rue du Japon,31400,31555,Toulouse,Haute-Garonne,Occitanie,43.590454,1.45837,,Non,,,,,,,,,,,,,,
GRETA,,,,,,,3 rue andré daste 31400 Toulouse,3,Rue André Daste,31400,31555,Toulouse,Haute-Garonne,Occitanie,43.58155,1.439351,,Non,,,,,,,,,,,,,,
Ligue de l'enseignement,,,Association,,Association,,31400 Toulouse,,Impasse Jacques Piou,31400,31555,Toulouse,Haute-Garonne,Occitanie,43.575003,1.444619,,Non,,,,,,,,,,,,,,
La main à la pate,,,Association,,Association,,62 rue de Nîmes 31400 Toulouse,62,Rue de Nîmes,31400,31555,Toulouse,Haute-Garonne,Occitanie,43.575318,1.465174,,Non,,,,,,,,,,,,,,
Generations solidaires,,,Association,,Association,,30 avenue jean moulin 31400 Toulouse,30,Avenue Jean Moulin,31400,31555,Toulouse,Haute-Garonne,Occitanie,43.580927,1.441941,,Non,,,,,,,,,,,,,,
ASTRONEF,,,Association,,Association,,3 place des avions 31400 Toulouse,3,Place des Avions,31400,31555,Toulouse,Haute-Garonne,Occitanie,43.57692,1.459985,,Non,0561529070,,,,,,,,,,,,,
ASEER,,,Association,,Association,,38 avenue jean moulin 31400 Toulouse,38,Avenue Jean Moulin,31400,31555,Toulouse,Haute-Garonne,Occitanie,43.579108,1.441695,,Non,0561142612,,aseer@laposte.net,,,,,,,,,,,
Centre annexe Empalot,,,,,,,10 rue jean paul blanchard 31400 Toulouse,10,Rue Jean Pierre Blanchard,31400,31555,Toulouse,Haute-Garonne,Occitanie,43.588288,1.447981,,Non,0561149420,,,,,,,,,,,,,
Maison Des Solidarités Rangueil,,,,,,,39 rue camille desmoullins 31400 Toulouse,39,Rue Camille Desmoulins,31400,31555,Toulouse,Haute-Garonne,Occitanie,43.581596,1.453397,,Non,,,,,,,,,,,,,,
Maison Des Solidarités Pont des demoiselles,,,,,,,31400 Toulouse,,Impasse Jacques Piou,31400,31555,Toulouse,Haute-Garonne,Occitanie,43.575003,1.444619,,Non,,,,,,,,,,,,,,
AIFOMEJ,,,Association,,Association,,5 impasse des hérons 31400 Toulouse,5,Impasse des Hérons,31400,31555,Toulouse,Haute-Garonne,Occitanie,43.57568,1.437123,,Non,0561535234,,,,,,,,,,,,,
Karavan,,,Association,,Association,,31400 Toulouse,,Impasse Jacques Piou,31400,31555,Toulouse,Haute-Garonne,Occitanie,43.575003,1.444619,,Non,,,,,,,,,,,,,,
CIDFF,,,Association,,Association,,95 grande rue st michel 31400 Toulouse,95,Grande-rue Saint Michel,31400,31555,Toulouse,Haute-Garonne,Occitanie,43.588909,1.445984,,Non,0534312331,,cidff31@cdiff31.fr,,,,,,,,,,,
Empalot Services,,,Association,,Association,,31400 Toulouse,,Impasse Jacques Piou,31400,31555,Toulouse,Haute-Garonne,Occitanie,43.575003,1.444619,,Non,,,toulouse-empalot@cnlrq.org,,,,,,,,,,,
Restos du coeur,,,Association,,Association,,286 rte de revel 31400 Toulouse,286,Route de Revel,31400,31555,Toulouse,Haute-Garonne,Occitanie,43.565955,1.510915,,Non,0983984619,,,,,,,,,,,,,
Emmaüs Agir,,,Association,,Association,,43 avenue de l'URSS 31400 Toulouse,43,Avenue de l'Urss,31400,31555,Toulouse,Haute-Garonne,Occitanie,43.581551,1.448801,,Non,,,,,,,,,,,,,,
Maison Des Solidarités Montaudran,,,,,,,31400 Toulouse,,Impasse Jacques Piou,31400,31555,Toulouse,Haute-Garonne,Occitanie,43.575003,1.444619,,Non,,,,,,,,,,,,,,
Mairie de quartier Pont des Demoiselles,,,"Commune (Ville, CCAS, Centre Culturel...)",,,,31400 Toulouse,,Impasse Jacques Piou,31400,31555,Toulouse,Haute-Garonne,Occitanie,43.575003,1.444619,,Non,,,,,,,,,,,,,,
Maison de quartier rangueil/centre social,,,"Commune (Ville, CCAS, Centre Culturel...)",,,,31400 Toulouse,,Impasse Jacques Piou,31400,31555,Toulouse,Haute-Garonne,Occitanie,43.575003,1.444619,,Non,,,,,,,,,,,,,,
Bibliotheque des ponts des demoiselles,,,"Commune (Ville, CCAS, Centre Culturel...)",,,,63 bis avenue st exupery 31400 Toulouse,63 bis,Avenue Antoine de Saint Exupéry,31400,31555,Toulouse,Haute-Garonne,Occitanie,43.585621,1.465934,,Non,,,,,,,,,,,,,,
Cosmopolitaine,,,Association,,Association,,31400 Toulouse,,Impasse Jacques Piou,31400,31555,Toulouse,Haute-Garonne,Occitanie,43.575003,1.444619,,Non,,,contact@cosmopolitaine.org,,,,,,,,,,,
CLCV,,,,,,,31400 Toulouse,,Impasse Jacques Piou,31400,31555,Toulouse,Haute-Garonne,Occitanie,43.575003,1.444619,,Non,,,,,,,,,,,,,,
Centre social Jolimont Soupetard,,,,,,,Centre social Jolimont 11 avenue de l'observatoire 31500 Toulouse,11,Avenue de l'Observatoire,31500,31555,Toulouse,Haute-Garonne,Occitanie,43.61352,1.462468,,Non,0531229484,,Jolimont.cs@mairie-toulouse.fr,,,; ; ; 9h-12h30 et 13h30-17h/16h30; 9h-12h30 et 13h30-17h/16h30; ; ,,,,,,,,
Fédération des Femmes pour l'Europe (FFPE),,,Association,,Association,,1  rue Léon Jouhaux 31500 Toulouse,1,Rue Léon Jouhaux,31500,31555,Toulouse,Haute-Garonne,Occitanie,43.613273,1.460711,,Non,,,,www.ffpe-toulouse.org,,,,,,,,,,APTIC
Mission Locale centre,,,Association,,Association,,24 rue Garipuy 31500 Toulouse,24,Rue Garipuy,31500,31555,Toulouse,Haute-Garonne,Occitanie,43.611391,1.457803,,Non,,,,,,,,,,,,,,
Mission Locale Antenne Jolimont,,,Association,,Association,,31500 Toulouse,,Toulouse,31500,31555,Toulouse,Haute-Garonne,Occitanie,43.600568,1.433106,,Non,,,,,,,,,,,,,,
Agir et devenir,,,Association,,Association,,31500 Toulouse,,Toulouse,31500,31555,Toulouse,Haute-Garonne,Occitanie,43.600568,1.433106,,Non,,,agiretdevenir@live.fr,,,,,,,,,,,
Centre social Jean Rieux,,,"Commune (Ville, CCAS, Centre Culturel...)",,,,31500 Toulouse,,Toulouse,31500,31555,Toulouse,Haute-Garonne,Occitanie,43.600568,1.433106,,Non,,,,https://www.cpjr.fr/,,,,,,,,,,
APSAR,,,"Commune (Ville, CCAS, Centre Culturel...)",,,,70 chemin michoun 31500 Toulouse,70,Chemin Michoun,31500,31555,Toulouse,Haute-Garonne,Occitanie,43.62656,1.468206,,Non,0561582463,,,,,,,,,,,,,
Centre social Jolimont,,,"Commune (Ville, CCAS, Centre Culturel...)",,,,11 avenue de l'observatoire 31500 Toulouse,11,Avenue de l'Observatoire,31500,31555,Toulouse,Haute-Garonne,Occitanie,43.61352,1.462468,,Non,0567774480,,,,,,,,,,,,,
Maison Des Solidarités Bonnefoy/Amouroux,,,,,,,3 rue du faubourg bonnefoy 31500 Toulouse,3,Rue du Faubourg Bonnefoy,31500,31555,Toulouse,Haute-Garonne,Occitanie,43.616349,1.453242,,Non,0534255100,,,,,,,,,,,,,
Centre social polyvalent Jean Rieux,,,,,,,157 avenue jean rieux 31500 Toulouse,157,Avenue Jean Rieux,31500,31555,Toulouse,Haute-Garonne,Occitanie,43.591859,1.468456,,Non,0561548000,,,www.cpjr.fr,,,,,Accès libre,,,,,
Centre social ASPAR,,,,,,,70 chemin Michoun 31500 Toulouse,70,Chemin Michoun,31500,31555,Toulouse,Haute-Garonne,Occitanie,43.62656,1.468206,,Non,,,,,,,,,Accès libre,,,,,
Centre social Jolimont Soupetard,,,,,,,Antenne soupetard 12 rue charles garnier 31500 Toulouse,12,Rue Charles Garnier,31500,31555,Toulouse,Haute-Garonne,Occitanie,43.608485,1.477852,,Non,0531229515,,Jolimont.cs@mairie-toulouse.fr,,,; 9h-12h30 et 13h30-17h; 9h-12h30 et 13h30-17h; ; ; ; ,"Tu 09:00-12:30,13:30-17:00; We 09:00-12:30,13:30-17:00",,,,,,,
Mediatheque Jose Cabanis,,,"Commune (Ville, CCAS, Centre Culturel...)",,,,31500 Toulouse,,Toulouse,31500,31555,Toulouse,Haute-Garonne,Occitanie,43.600568,1.433106,,Non,,,,,,,,,,,,,,
Maison de la citoyenneté Est,,,"Commune (Ville, CCAS, Centre Culturel...)",,,,8 bis avenue du parc 31500 Toulouse,8 bis,Avenue du Parc,31500,31555,Toulouse,Haute-Garonne,Occitanie,43.620189,1.470204,,Non,0531229300,,mdc.est@mairie-toulouse.fr,,,,,,,,,,,
Pole Emploi Jolimont,,,Pôle Emploi,,,,31500 Toulouse,,Toulouse,31500,31555,Toulouse,Haute-Garonne,Occitanie,43.600568,1.433106,,Non,,,,,,,,,,,,,,
Mediathèque Serveyrolles,,,,,,,31500 Toulouse,,Toulouse,31500,31555,Toulouse,Haute-Garonne,Occitanie,43.600568,1.433106,,Non,,,,,,,,,,,,,,
Point Information Jeunesse Jolimont,,,,,,,31500 Toulouse,,Toulouse,31500,31555,Toulouse,Haute-Garonne,Occitanie,43.600568,1.433106,,Non,,,,,,,,,,,,,,
PRCP,,,Association,,Association,,2 allée du vignemale Toulouse,2,Rue du Vignemale,31500,31555,Toulouse,Haute-Garonne,Occitanie,43.587748,1.482454,,Non,0561154344,,prcp@wanadoo.fr,,,,,,,,,,,
Apprentis d'Auteuil,,,Association,,Association,,Toulouse,,Toulouse,31500,31555,Toulouse,Haute-Garonne,Occitanie,43.600568,1.433106,,Non,,,,,,,,,,,,,,
Ensemble à tout âge,,,Association,,Association,,Toulouse,,Toulouse,31500,31555,Toulouse,Haute-Garonne,Occitanie,43.600568,1.433106,,Non,,,,,,,,,,,,,,
ADVITAM,,,Association,,Association,,Toulouse,,Toulouse,31500,31555,Toulouse,Haute-Garonne,Occitanie,43.600568,1.433106,,Non,,,,,,,,,,,,,,
Association,,,Association,,Association,,Toulouse,,Toulouse,31500,31555,Toulouse,Haute-Garonne,Occitanie,43.600568,1.433106,,Non,,,,,,,,,,,,,,
CHRS de Fages,,,Association,,Association,,Toulouse,,Toulouse,31500,31555,Toulouse,Haute-Garonne,Occitanie,43.600568,1.433106,,Non,,,,,,,,,,,,,,
ADPAM,,,Association,,Association,,Toulouse,,Toulouse,31500,31555,Toulouse,Haute-Garonne,Occitanie,43.600568,1.433106,,Non,,,,,,,,,,,,,,
CSF Le Cabri,,,Association,,Association,,Toulouse,,Toulouse,31500,31555,Toulouse,Haute-Garonne,Occitanie,43.600568,1.433106,,Non,,,associationlecabri@laposte.net,,,,,,,,,,,
Bell’Arc en Ciel,,,Association,,Association,,Toulouse,,Toulouse,31500,31555,Toulouse,Haute-Garonne,Occitanie,43.600568,1.433106,,Non,,,bellarcenciel@wanadoo.fr,,,,,,,,,,,
APSAR,,,Association,,Association,,Toulouse,,Toulouse,31500,31555,Toulouse,Haute-Garonne,Occitanie,43.600568,1.433106,,Non,0561582463,,,,,,,,,,,,,
A.I.R.S,,,Association,,Association,,Toulouse,,Toulouse,31500,31555,Toulouse,Haute-Garonne,Occitanie,43.600568,1.433106,,Non,0971307586,,,,,,,,,,,,,
Tisseo ?,,,,,,,Toulouse,,Toulouse,31500,31555,Toulouse,Haute-Garonne,Occitanie,43.600568,1.433106,,Non,,,,,,,,,,,,,,
Accueil Amouroux,,,"Commune (Ville, CCAS, Centre Culturel...)",,,,Toulouse,,Toulouse,31500,31555,Toulouse,Haute-Garonne,Occitanie,43.600568,1.433106,,Non,,,accueil.amouroux@mairie-toulouse.fr,,,,,,,,,,,
Accueil Soupetard,,,"Commune (Ville, CCAS, Centre Culturel...)",,,,Toulouse,,Toulouse,31500,31555,Toulouse,Haute-Garonne,Occitanie,43.600568,1.433106,,Non,,,Accueil.SOUPETARD@mairie-toulouse.fr,,,,,,,,,,,
Maison de la citoyenneté Est,,,"Commune (Ville, CCAS, Centre Culturel...)",,,,Toulouse,,Toulouse,31500,31555,Toulouse,Haute-Garonne,Occitanie,43.600568,1.433106,,Non,,,Mdc.Est@mairie-toulouse.fr,,,,,,,,,,,
Maison de la citoyenneté Nord,,,"Commune (Ville, CCAS, Centre Culturel...)",,,,Toulouse,,Toulouse,31500,31555,Toulouse,Haute-Garonne,Occitanie,43.600568,1.433106,,Non,,,mdc.nord@mairie-toulouse.fr,,,,,,,,,,,
Maison de la citoyenneté Rive Gauche,,,"Commune (Ville, CCAS, Centre Culturel...)",,,,Toulouse,,Toulouse,31500,31555,Toulouse,Haute-Garonne,Occitanie,43.600568,1.433106,,Non,,,mdc.rive-gauche@mairie-toulouse.fr,,,,,,,,,,,
Maison de la citoyenneté Sud Est,,,"Commune (Ville, CCAS, Centre Culturel...)",,,,Toulouse,,Toulouse,31500,31555,Toulouse,Haute-Garonne,Occitanie,43.600568,1.433106,,Non,,,mdc.sud-est@mairie-toulouse.fr,,,,,,,,,,,
Point Information Mairie Serveyrolles,,,"Commune (Ville, CCAS, Centre Culturel...)",,,,Toulouse,,Toulouse,31500,31555,Toulouse,Haute-Garonne,Occitanie,43.600568,1.433106,,Non,0561222239,,,,,,,,,,,,,
Association Lieu Ressource Formation (LRF),,,,,,,Toulouse,,Toulouse,31500,31555,Toulouse,Haute-Garonne,Occitanie,43.600568,1.433106,,Non,,,,,,,,,,,,,,
Planning Familial,,,,,,,Toulouse,,Toulouse,31500,31555,Toulouse,Haute-Garonne,Occitanie,43.600568,1.433106,,Non,,,,,,,,,,,,,,
Club de Prévention ASETE,,,,,,,Toulouse,,Toulouse,31500,31555,Toulouse,Haute-Garonne,Occitanie,43.600568,1.433106,,Non,,,,,,,,,,,,,,
Bibliothèque Roseraie,,,,,,,Toulouse,,Toulouse,31500,31555,Toulouse,Haute-Garonne,Occitanie,43.600568,1.433106,,Non,,,,,,,,,,,,,,
NB Com',,,,,,,Toulouse,,Toulouse,31500,31555,Toulouse,Haute-Garonne,Occitanie,43.600568,1.433106,,Non,,,,,,,,,,,,,,
CRIJ,,,,,,,Toulouse,,Toulouse,31500,31555,Toulouse,Haute-Garonne,Occitanie,43.600568,1.433106,,Non,,,,,,,,,,,,,,
SAVIM,,,,,,,Toulouse,,Toulouse,31500,31555,Toulouse,Haute-Garonne,Occitanie,43.600568,1.433106,,Non,,,,,,,,,,,,,,
ASETE,,,,,,,Toulouse,,Toulouse,31500,31555,Toulouse,Haute-Garonne,Occitanie,43.600568,1.433106,,Non,,,,,,,,,,,,,,
Mairie annexe Roseraie,,,,,,,Toulouse,,Toulouse,31500,31555,Toulouse,Haute-Garonne,Occitanie,43.600568,1.433106,,Non,0531229310,,,,,,,,,,,,,
Mairie annexe Bonnefoy,,,,,,,Toulouse,,Toulouse,31500,31555,Toulouse,Haute-Garonne,Occitanie,43.600568,1.433106,,Non,0561222232,,,,,,,,,,,,,
Cap Nomade,,,Association,,Association,,Toulouse,,Toulouse,31500,31555,Toulouse,Haute-Garonne,Occitanie,43.600568,1.433106,,Non,,,capnomade@gmail.com,http://www.capnomade.org/formations/,,,,,,,,,,
LA FABRIQUE SOLIDAIRE DES MINIMES (FA SOL MI),,,,,,,1  rue Van Dyck 31200 Toulouse,1,Rue Antoine Van Dyck,31200,31555,Toulouse,Haute-Garonne,Occitanie,43.640711,1.439456,,Non,,,direction@lafabriquesolidaire.org,,,,,,,,,,,
LA CANTINE QUAI DES SAVOIRS,,,,,,,39 Allées Jules Guesdes 31000 Toulouse,39,Allées Jules Guesde,31000,31555,Toulouse,Haute-Garonne,Occitanie,43.594758,1.450562,,Non,0607051970,,p.cointepas@lamelee.com,,,,,,,,,,,
NOVA MELEE AUBUISSON,,,,,,,27 Rue d’Aubuisson 31000 Toulouse,27,Rue d'Aubuisson,31000,31555,Toulouse,Haute-Garonne,Occitanie,43.602743,1.454135,,Non,0607051970,,p.cointepas@lamelee.com,,,,,,,,,,,
EMERGENCE PLUS - DYNAMIQUE TOULOUSE NORD,,,,,,,2 rue Ernest Renan 31200 Toulouse,,Rue Ernest Renan,31200,31555,Toulouse,Haute-Garonne,Occitanie,43.628251,1.445023,,Non,0534516370,,contact@emergence-plus.com,,,,,,,,,,,
ARTILECT,,,,,,,27 bis allée Maurice Sarraut 31300 Toulouse,,Allée Maurice Sarraut,31300,31555,Toulouse,Haute-Garonne,Occitanie,43.595985,1.42287,,Non,,,nicolas.lassabe@artilect.fr,,,,,,,,,,,
FABLAB LE PROPULSEUR,,,,,,,39 Allées Jules Guesde 31400 Toulouse,39,Allées Jules Guesde,31000,31555,Toulouse,Haute-Garonne,Occitanie,43.594758,1.450562,,Non,,,johan.langot@science-animation.org,,,,,,,,,,,
ETINCELLE COWORKING TOULOUSE,,,,,,,2  rue d'Austerlitz 31300 Toulouse,2,Rue d'Austerlitz,31000,31555,Toulouse,Haute-Garonne,Occitanie,43.605541,1.447462,,Non,,,sebastien@etincelle-coworking.com,,,,,,,,,,,
Ô LOCAL,,,,,,,8  impasse Bonnet 31500 Toulouse,8,Impasse Bonnet,31500,31555,Toulouse,Haute-Garonne,Occitanie,43.5995,1.457111,,Non,,,contact@olocal.fr,,,,,,,,,,,
HARRYCOW,,,,,,,13 rue Sainte Ursule 31000 Toulouse,13,Rue Sainte Ursule,31000,31555,Toulouse,Haute-Garonne,Occitanie,43.602222,1.442131,,Non,0675435669,,harry.coworking@gmail.com,,,,,,,,,,,
TL LES IMAGINATIONS FERTILES,,,,,,,27 bis Allées Maurice Sarraut 31300 Toulouse,,Allée Maurice Sarraut,31300,31555,Toulouse,Haute-Garonne,Occitanie,43.595985,1.42287,,Non,0675557208,,a.gaigneux@imaginationsfertiles.fr,,,,,,,,,,,
Association Diapason,,,,,Association,,31100 Toulouse,,Rue Marie France Brive,31100,31555,Toulouse,Haute-Garonne,Occitanie,43.580552,1.369272,,Non,,,,,,,,,,,,,,
Foyer Jeune Travailleur Jolimont,,,,,,,31500 Toulouse,,Toulouse,31500,31555,Toulouse,Haute-Garonne,Occitanie,43.600568,1.433106,,Non,0534304280,,,,,,,,,,,,,
TO7,,,Association,,Association,,Toulouse,,Toulouse,31500,31555,Toulouse,Haute-Garonne,Occitanie,43.600568,1.433106,,Non,,,to7@to7.org,,,,,,,,,,,
Mediatheque Tournefeuille,,,"Commune (Ville, CCAS, Centre Culturel...)",,,,3 impasse Max Baylac 31170 Tournefeuille,3,Impasse Max Baylac,31170,31557,Tournefeuille,Haute-Garonne,Occitanie,43.582698,1.347727,,Non,0562132178,,ecm@mairie-tournefeuille.fr,http://www.mairie-tournefeuille.fr/,,,,,,,,,,
AGEAH - Maison des Associations Tournefeuille,,,,,,,Tournefeuille,,Tournefeuille,31170,31557,Tournefeuille,Haute-Garonne,Occitanie,43.575005,1.33373,,Non,,,,,,,,,,,,,,
Espace Public Informatique,,,,,,,31 place de la mairie 65220 Trie sur baïse,31,Place de la Mairie,65220,65452,Trie-sur-Baïse,Hautes-Pyrénées,Occitanie,43.320486,0.370906,,Non,0562350609,,communication@ccptm.fr,,,,,,,,,,,
restos du cœur,,,,,Association,,3 place de la Mairie 65220 Trie sur baïse,3,Place de la Mairie,65220,65452,Trie-sur-Baïse,Hautes-Pyrénées,Occitanie,43.321167,0.370777,,Non,,,,,,,,,,,,,,
MSAP,,,,,,,31 place de la mairie 65220 Trie sur baïse,31,Place de la Mairie,65220,65452,Trie-sur-Baïse,Hautes-Pyrénées,Occitanie,43.320486,0.370906,,Non,0562356600,,communication@ccptm.fr,,,,,,,,,,,
Coteaux,PETR des coteaux,,Administration / Collectivité territoriale,,,,31 Place de la Mairie 65220 Trie sur baïse,31,Place de la Mairie,65220,65452,Trie-sur-Baïse,Hautes-Pyrénées,Occitanie,43.320486,0.370906,,Non,,,pointpublic.coteaux@orange.fr,,,9:00 - 12:30 / 13:30 - 17:00; 9:00 - 12:30 / 13:30 - 17:00; 9:00 - 12:30 / 13:30 - 17:00; 9:00 - 12:30 / 13:30 - 17:00; 9:00 - 12:30 / 13:30 - 17:00; -; ,"Mo 09:00-12:30,13:30-17:00; Tu 09:00-12:30,13:30-17:00; We 09:00-12:30,13:30-17:00; Th 09:00-12:30,13:30-17:00; Fr 09:00-12:30,13:30-17:00",,,,,,,France Services
EPI de Trie sur Baïse,,,,,,,65220 Trie sur baïse,,Trie-sur-Baïse,65220,65452,Trie-sur-Baïse,Hautes-Pyrénées,Occitanie,43.317342,0.360748,,Non,,,epi.trie@wanadoo.fr,,,,,,,,,,,
Service Jeunesse Léo Lagrange Venerque,,,"Commune (Ville, CCAS, Centre Culturel...)",,,,14  avenue du Mont Frouzi 31810 Venerque,14,Avenue du Mont Frouzi,31810,31572,Venerque,Haute-Garonne,Occitanie,43.433458,1.445644,,Non,,,,https://www.facebook.com/Service-Jeunesse-CCLAG-177831365607843/,,,,,,,,,,
Maison des Jeunes et de la Culture,,,,,,,17 Rue Barère de Vieuzac 65500 Vic en Bigorre,17,Rue Barere Vieuzac,65500,65460,Vic-en-Bigorre,Hautes-Pyrénées,Occitanie,43.384458,0.05662,,Non,,,,www.mjcvic.fr,,,,,Accès libre,,,,,
Vic-en-Bigorre,CC Adour Madiran,,Administration / Collectivité territoriale,,,,21 Place du Corps Franc Pommies 65500 Vic en Bigorre,21,Place du Corps Franc Pommies,65500,65460,Vic-en-Bigorre,Hautes-Pyrénées,Occitanie,43.38676,0.054881,,Non,,,,,,8:30 - 12:30; 8:30 - 12:30 / 14:00 - 18:00; 8:30 - 12:30 / 14:00 - 18:00; 8:30 - 12:30 / 14:00 - 18:00; 8:30 - 12:30 / 14:00 - 17:00; -; ,"Mo 08:30-12:30; Tu 08:30-12:30,14:00-18:00; We 08:30-12:30,14:00-18:00; Th 08:30-12:30,14:00-18:00; Fr 08:30-12:30,14:00-17:00",,,,,,,France Services
Restos du Cœur,,,Association,,Association,,17 rue Barrère de Vieuzac 65500 Vic en Bigorre,17,Rue Barere Vieuzac,65500,65460,Vic-en-Bigorre,Hautes-Pyrénées,Occitanie,43.384458,0.05662,,Non,,,,,,,,,,,,,,
Communauté de communes Adour Madiran Pôle de Services Publics,,,,,Collectivité locale ou territoriale,,MSAP 21 place Corps Franc pommiès 65500 Vic en Bigorre,21,Place du Corps Franc Pommies,65500,65460,Vic-en-Bigorre,Hautes-Pyrénées,Occitanie,43.38676,0.054881,,Non,0562316884,,contact@adour-madiran.fr,,,,,,,,,,,
Maison Départementale de la Solidarité,,,,,Collectivité locale ou territoriale,,445 avenue J Fourcade 65500 Vic en Bigorre,445,Avenue Jacques Fourcade,65500,65460,Vic-en-Bigorre,Hautes-Pyrénées,Occitanie,43.390384,0.05315,,Non,0562967423,,,,,,,,,,,,,
MJC,,,,,,,17 rue Barrère de Vieuzac 65500 Vic en Bigorre,17,Rue Barere Vieuzac,65500,65460,Vic-en-Bigorre,Hautes-Pyrénées,Occitanie,43.384458,0.05662,,Non,0562316100,,,,,,,,,,,,,
Médiathèque Adour Madiran,,,,,,,Quai Rossignol 65500 Vic en Bigorre,,Quai Rossignol,65500,65460,Vic-en-Bigorre,Hautes-Pyrénées,Occitanie,43.383724,0.051271,,Non,0562430525,,,,,,,,,,,,,
Vic Accueil,,,,,,,13 Rue Jean Jaurès 32190 Vic Fezensac,13,Rue Jean Jaures,32190,32462,Vic-Fezensac,Gers,Occitanie,43.758181,0.306182,,Non,,,,http://www.vic-accueil.fr,,,,,,,,,,
Artagnan en Fezensac,Communauté de Communes Artagnan en Fezensac,,Administration / Collectivité territoriale,,,,18 Rue des Cordeliers 32190 Vic Fezensac,18,Rue des Cordeliers,32190,32462,Vic-Fezensac,Gers,Occitanie,43.757189,0.301926,,Non,,,ccommunes.dartagnan.fezensac@wanadoo.fr,,,9:30 - 16:30; 9:30 - 16:30; 9:30 - 16:30; 9:30 - 16:30; 9:30 - 16:30; -; ,Mo 09:30-16:30; Tu 09:30-16:30; We 09:30-16:30; Th 09:30-16:30; Fr 09:30-16:30,,,,,,,France Services
Val Aïgo - Villemur-sur-Tarn,Communauté de communes Val'Aïgo,,Administration / Collectivité territoriale,,,,2 avenue Saint Exupéry 31340 Villemur sur tarn,2,Avenue Saint-exupéry,31340,31584,Villemur-sur-Tarn,Haute-Garonne,Occitanie,43.86082,1.500555,,Non,,,cias@valaigo.fr,,,8:30 - 12:30 / 13:30 - 17:00; 8:30 - 12:30 / Sur RDV : après-midi; 8:30 - 12:30 / 13:30 - 17:00; 8:30 - 12:30 / 13:30 - 17:00; 8:30 - 12:30 / 13:30 - 16:30; -; ,,,,,,,,France Services
Event Orizon,,,,,,,,,,,,,,,,,,Non,,,,,,,,,,,,,,
Tiers-lieu « l’oppidum »,,,,,,,,,,,,,,,,,,Non,,,epops-biodiversite@laposte.net,,,,,,,,,,,
MEDIATHEQUE GRAIN D’SEL,,,,,,,,,,,,,,,,,,Non,,,mediatheque@caracassonne-agglo.fr,,,,,,,,,,,
Maison de Services au Public de Chalabre,,,Maison de Service au Public (MSAP),,,,,,,,,,,,,,,Non,,,msap.chalabre@laposte.fr,,,,,,,,,,,
Maison de Services au Public d’Axat,,,Maison de Service au Public (MSAP),,,,,,,,,,,,,,,Non,,,msap.axat@laposte.fr,,,,,,,,,,,
Maison de Services au Public de Belcaire,,,Maison de Service au Public (MSAP),,,,,,,,,,,,,,,Non,,,msap.belcaire@laposte.fr,,,,,,,,,,,
Maison de Services au Public de Belvèze-du-Razès,,,Maison de Service au Public (MSAP),,,,,,,,,,,,,,,Non,,,msap.belveze-du-razes@laposte.fr,,,,,,,,,,,
Maison de Services au Public de Couiza,,,Maison de Service au Public (MSAP),,,,,,,,,,,,,,,Non,,,msap.couiza@laposte.fr,,,,,,,,,,,
Maison de Services au Public de Villasavary,,,Maison de Service au Public (MSAP),,,,,,,,,,,,,,,Non,,,mairie-de-villasavary@wanadoo.fr,,,,,,,,,,,
Maison des Potes,,,,,,,,,,,,,,,,,,Non,,,mdpnarbonne11@gmail.com,,,,,,,,,,,
L'Arche,,,,,,,,,,,,,,,,,,Non,,,arche.narbonne@gmail.com,,,,,,,,,,,
Centre Social et Culturel NELSON MANDELA,,,"Commune (Ville, CCAS, Centre Culturel...)",,,,,,,,,,,,,,,Non,,,centresocialnarbonne@gmail.com,,,,,,,,,,,
EPN Ecole de la seconde chance,,,,,,,,,,,,,,,,,,Non,,,,,,,,,,,,,,
MAISON DIGITALE DU CIDFF,,,,,,,,,,,,,,,,,,Non,,,lri.narbonne@cidff.fr,,,,,,,,,,,
LA BULLE DU WEB (WAW-coworking)),,,,,,,,,,,,,,,,,,Non,,,hello@labulleweb.com,,,,,,,,,,,
Ecole de la 2ème Chance Régionale,,,,,,,,,,,,,,,,,,Non,,,er2c@ligue11.org,,,,,,,,,,,
Maison de services au public Caunes-Minervois,,,Maison de Service au Public (MSAP),,,,,,,,,,,,,,,Non,,,msap.caunes-minervois@laposte.fr,,,,,,,,,,,
Maison de services au public Durban-Corbières,,,Maison de Service au Public (MSAP),,,,,,,,,,,,,,,Non,,,msap.durban-corbieres@laposte.fr,,,,,,,,,,,
Office de Tourisme Intercommunal au Cœur des Collines Cathares,,,,,,,,,,,,,,,,,,Non,,,tourisme@ccplm.fr,,,,,,,,,,,
Médiathèque Municipale de Palaja,,,,,,,,,,,,,,,,,,Non,,,,,,,,,,,,,,
Médiathèque d'Alzonne,,,,,,,,,,,,,,,,,,Non,,,mediatheque@carcassonne-agglo.fr,,,,,,,,,,,
Maison de services au public - Piemont d'Alaric,,,Maison de Service au Public (MSAP),,,,,,,,,,,,,,,Non,,,msap@piemont-alaric.fr,,,,,,,,,,,
Le Chai : Espace culturel,,,,,,,,,,,,,,,,,,Non,,,lechai@piemont-alaric.fr,,,,,,,,,,,
Mairie d'Axat,,,,,,,,,,,,,,,,,,Non,,,mairie.axat@axat.fr,,,,,,,,,,,
Médiathèque du Pays de Sault,,,,,,,,,,,,,,,,,,Non,,,media.espezel@gmail.com,,,,,,,,,,,
Bibliothèque Municipale de Chalabre,,,,,,,,,,,,,,,,,,Non,,,epn@pyreneesaudoises.fr,,,,,,,,,,,
Médiathèque d'Espéraza,,,,,,,,,,,,,,,,,,Non,,,bibliotheque_esperaza@Yahoo.fr,,,,,,,,,,,
Maison de services au public POM'S de Villerouge-Termenès,,,Maison de Service au Public (MSAP),,,,,,,,,,,,,,,Non,,,poms.villerouge@orange.fr,,,,,,,,,,,
Maison de services au public Tuchan,,,Maison de Service au Public (MSAP),,,,,,,,,,,,,,,Non,,,msap.tuchan@laposte.fr,,,,,,,,,,,
Médiathèque de Trèbes,,,,,,,,,,,,,,,,,,Non,,,bibliotheque-trebes@wanadoo.fr,,,,,,,,,,,
Médiathèque de Saint-Laurent de la Cabrerisse,,,,,,,,,,,,,,,,,,Non,,,mediathequeslc11@orange.fr,,,,,,,,,,,
Médiathèque Milcom de Saint-André de Roquelongue,,,,,,,,,,,,,,,,,,Non,,,mediatheque-st-andre@wanadoo.fr,,,; 15h-19h; ; 9h-12h et 17h-19h; ; 9h-12h; ,"Tu 15:00-19:00; Th 09:00-12:00,17:00-19:00; Sa 09:00-12:00",,,,,,,
Espace Public Numérique de la MLIDR11 Limoux,,,,,,,,,,,,,,,,,,Non,,,mli.dr11@wanadoo.fr,,,,,,,,,,,
Maison de services au public POM'S Laroque de Fa,,,Maison de Service au Public (MSAP),,,,,,,,,,,,,,,Non,,,poms.laroquedefa@orange.fr,,,,,,,,,,,
Maison de services au public POM'S de Lanet,,,Maison de Service au Public (MSAP),,,,,,,,,,,,,,,Non,,,poms.lanet@orange.fr,,,,,,,,,,,
ADHCo Centre Social,,,"Commune (Ville, CCAS, Centre Culturel...)",,,,,,,,,,,,,,,Non,,,adhco.developpement@orange.fr,,,,,,,,,,,
Maison de services au public POM'S de Mouthoumet,,,Maison de Service au Public (MSAP),,,,,,,,,,,,,,,Non,,,poms.mouthoumet@orange.fr,,,,,,,,,,,
Maison de services au public POM'S de Félines-Termenès,,,Maison de Service au Public (MSAP),,,,,,,,,,,,,,,Non,,,poms.felines@orange.fr,,,,,,,,,,,
Mission Locale Ouest Audois,,,,,,,,,,,,,,,,,,Non,,,accueil.castelnaudary@mloa.fr,,,,,,,,,,,
Médiathèque Georges Canguilhem,,,,,,,,,,,,,,,,,,Non,,,mediatheques@cccla.fr,,,,,,,,,,,
Espace de co-oworking : L'Alpha'[R],,,,,,,,,,,,,,,,,,Non,,,rmine@carcassonne-agglo.fr,,,,,,,,,,,
Ateliers Canopé,,,,,,,,,,,,,,,,,,Non,,,contact.atelier11@reseau-canope.fr,,,,,,,,,,,
Adens,,,,,,,,,,,,,,,,,,Non,,,,http://adens.org/qui-sommes-nous/,,,,,,,,,,
Point info famille,,,,,,,,,,,,,,,,,,Non,,,,,,,,,,,,,,
DigiJeunes,,,,,,,,,,,,,,,,,,Non,,,,,,,,,,,,,,
centre culturel des chamois,,,"Commune (Ville, CCAS, Centre Culturel...)",,,,,,,,,,,,,,,Non,,,accueil.chamois@mairie-toulouse.fr,,,,,,,,,,,
Pavillon Sauvages,,,,,,,,,,,,,,,,,,Non,,,,,,,,,,,,,,
Cultures portes de gascogne,,,Association,,Association,,,,,,,,,,,,,Non,,,,,,,,,,,,,,
Kopané,,,,,,,,,,,,,,,,,,Non,,,,,,,,,,,,,,
Accueil jeunes de Gimont,,,,,,,,,,,,,,,,,,Non,,,,,,,,,,,,,,
