nom,structure_porteuse,description,type_lieu,statut,nature_juridique,siret,adresse_brut,adresse_numero,adresse_rue,adresse_code_postal,adresse_code_insee,adresse_commune,adresse_departement,adresse_region,latitude,longitude,itinerant,en_ligne,contact_telephone,contact_telephone_details,contact_email,contact_web,contact_facebook,horaires_ouverture_brut,horaires_ouverture_osm,public_cible,modalites_acces,modalites_accompagnement,tarifs,accessibilite,services,labels
Moulins Habitat,Moulins Habitat,,,,Groupement d'intérêt public (GIP),,5-7 Impasse Dieudonné Costes- Maisons des Associations 3000 MOULINS,7,Impasse Dieudonné Costes,03000,03190,Moulins,Allier,Auvergne-Rhône-Alpes,46.543034,3.337973,,Non,0470481653,,sreyne@moulinshabitat.fr,www.moulinshabitat.cyber-base.org,,,,,,,,,,
"AGEDI (Agence de GEstion et de Développement 
Informatique)",,,,,,,Mairie 15700 BRAGEAC,,Brageac,15700,15024,Brageac,Cantal,Auvergne-Rhône-Alpes,45.2035,2.2666,,Non,0471690024,,agedi.15@laposte.net,www.agedi.fr/,,,,,,,,,,
Point Cybercantal de Salers,,,,,,,Rue du couvent 15140 SALERS,,Rue du Couvent,15140,15219,Salers,Cantal,Auvergne-Rhône-Alpes,45.137927,2.494394,,Non,0471407233,,mairie.salers@wanadoo.fr,,,,,,,,,,,
Point Information Jeunesse,,,,,Association,,"Maison de Brunelles, 12 Avenue Charles de Gaulle 43120 MONISTROL SUR LOIRE",12,Avenue Charles de Gaulle,43120,43137,Monistrol-sur-Loire,Haute-Loire,Auvergne-Rhône-Alpes,45.293314,4.175301,,Non,0471754707,,pij1.acija@wanadoo.fr,,,,,,,,,,,
Ecole Mercoeur,Ville de Clermont-Ferrand,,,,Association,,98 Rue du Var 63000 CLERMONT-FERRAND,,Rue du Guery,63000,63113,Clermont-Ferrand,Puy-de-Dôme,Auvergne-Rhône-Alpes,45.760896,3.077298,,Non,0473246662,,msidiammi@ville-clermont-ferrand.fr,www.ville-clermont-ferrand.fr,,,,,,,,,,
Médiathèque Jaude,Ville de Clermont-Ferrand,,,,Association,,9 Place Louis Aragon 63000 CLERMONT-FERRAND,9,Place Louis Aragon,63000,63113,Clermont-Ferrand,Puy-de-Dôme,Auvergne-Rhône-Alpes,45.774916,3.084176,,Non,0473293250,,msidiammi@ville-clermont-ferrand.fr,www.ville-clermont-ferrand.fr,,,,,,,,,,
EPN (Espace Public Numérique) de Romagnat,Ville de Romagnat,,,,Collectivité locale ou territoriale,,"Centre Social - 3, Rue des Fours à Chaux 63540 ROMAGNAT",3,Rue des Fours à Chaux,63540,63307,Romagnat,Puy-de-Dôme,Auvergne-Rhône-Alpes,45.727276,3.101217,,Non,0473626300,,epn.romagnat@gmail.com,http://www.epnromagnat.jimdo.com/,,,,,,,,,,
Centre Multimédia Intercommunal,Communauté de communes Bocage Sud,,,,Collectivité locale ou territoriale,,1 Place du 8 mai 3240 LE MONTET,1,Place du 8 Mai 1945,03240,03183,Le Montet,Allier,Auvergne-Rhône-Alpes,46.409044,3.05668,,Non,0470473776,,comcom-bocagesud@wanadoo.fr,www.bocagesud.fr,,,,,,,,,,
Cyberc@ntal Allanche,Communauté de Communes du Cézallier,,,,Établissement public à caractère industriel et commercial (EPIC),,Place du Cézallier 15160 ALLANCHE,,Place du Cézallier,15160,15001,Allanche,Cantal,Auvergne-Rhône-Alpes,45.230276,2.934749,,Non,0471786833,,olivier@cezallier.org,www.cezallier.org,,,,,,,,,,
PIJ (Point Infos Jeunes),,,,,Collectivité locale ou territoriale,,Rue du 139ème Régiment d'Infanterie 15000 AURILLAC,,Rue du 139e Rgt d'Infanterie,15000,15014,Aurillac,Cantal,Auvergne-Rhône-Alpes,44.924339,2.443765,,Non,0471468620,,pij@caba.fr,,,,,,,,,,,
Espace multimédia,,,,,,,Route de Bagnac 15600 MAURS,,Route de Bagnac,15600,15122,Maurs,Cantal,Auvergne-Rhône-Alpes,44.70836,2.195898,,Non,0471497858,,espace.multimedia.maurs@wanadoo.fr,,,,,,,,,,,
Point Cybercantal Ytrac,,,,,,,Ecole d'Ytrac 2 Impasse Jean de la Fontaine 15130 YTRAC,2,Rue Jean de la Fontaine,15130,15267,Ytrac,Cantal,Auvergne-Rhône-Alpes,44.914979,2.362992,,Non,0471477252,,mairie-ytrac@wanadoo.fr,,,,,,,,,,,
EPN (Espace Public Numérique) Aulnat,,,,,,,Rue Curie 63510 AULNAT,,Rue Curie,63510,63019,Aulnat,Puy-de-Dôme,Auvergne-Rhône-Alpes,45.793806,3.164859,,Non,,,,,,,,,,,,,,
Ecole Jean Zay,Ville de Clermont-Ferrand,,,,Association,,71 Avenue du Limousin 63000 CLERMONT-FERRAND,71,Avenue du Limousin,63100,63113,Clermont-Ferrand,Puy-de-Dôme,Auvergne-Rhône-Alpes,45.789332,3.062078,,Non,0473375565,,ecole-elem.j-zay.clermont.63@ac-clermont.fr,www.ville-clermont-ferrand.fr,,,,,,,,,,
Salle Multimédia intercommunale,Communauté de Communes Coeur de Combrailles,,,,Établissement public à caractère industriel et commercial (EPIC),,Route de Pionsat 63390 ESPINASSE,,Le Moulin du Pont,63390,63152,Espinasse,Puy-de-Dôme,Auvergne-Rhône-Alpes,46.024275,2.745359,,Non,0473858451,,service.internet.espinasse@wanadoo.fr,,,,,,,,,,,
Médiathèque Intercommunale,Syndicat Intercommunal d'Equipement Saint-Eloy - Youx - Montaigut,,,,Collectivité locale ou territoriale,,Rue du Puits du Manoir 63700 SAINT ELOY LES MINES,,Rue du Puits du Manoir,63700,63338,Saint-Éloy-les-Mines,Puy-de-Dôme,Auvergne-Rhône-Alpes,46.165706,2.833098,,Non,0473850505,,mediatek63700@wanadoo.fr,,,,,,,,,,,
Centre Social Souvigny,,,,,,,Route de Montluçon 3210 SOUVIGNY,,Route de Besson,03210,03275,Souvigny,Allier,Auvergne-Rhône-Alpes,46.534182,3.195788,,Non,0470436469,,centre.social.souvigny@wanadoo.fr,,,,,,,,,,,
Salle Multimédia Médiathèque de Chaudes Aigues,,,,,,,7 Rue Saint Jacques 15110 CHAUDES AIGUES,7,Rue Saint-jacques,15110,15045,Chaudes-Aigues,Cantal,Auvergne-Rhône-Alpes,44.852204,3.003035,,Non,0471235585,,mediatheque.chaudes-aigues@wanadoo.fr,,,,,,,,,,,
Point Cybercantal de Reilhac,,,,,,,"Ecole publique, le Bourg 15250 REILHAC",,Place de l'Ecole Publique,07120,07115,Labeaume,Ardèche,Auvergne-Rhône-Alpes,44.448736,4.306518,,Non,0471630050,,,,,,,,,,,,,
Point Cyb du PIJ de Saint-Flour,,,,,,,"OMJS, Avenue du Docteur Mallet 15100 SAINT FLOUR",,Avenue du Docteur Mallet,15100,15187,Saint-Flour,Cantal,Auvergne-Rhône-Alpes,45.033019,3.08663,,Non,0471601600,,omjs.pij.saint-flour@wanadoo.fr,,,,,,,,,,,
Club Informatique de Rauret,,,,,,,Mairie de Rauret 43340 RAURET,,Rauret Bas,43340,43160,Rauret,Haute-Loire,Auvergne-Rhône-Alpes,44.816403,3.786503,,Non,0471082451,,mairie@rauret.fr,www.rauret.fr/,,,,,,,,,,
Centre Anatole France,Ville de Clermont-Ferrand,,,,Association,,"154, Rue Anatole France 63000 CLERMONT-FERRAND",154,Rue Anatole France,63000,63113,Clermont-Ferrand,Puy-de-Dôme,Auvergne-Rhône-Alpes,45.778717,3.111632,,Non,0473905460,,mq.anatole-france@ville-clermont-ferrand.fr,www.ville-clermont-ferrand.fr,,,,,,,,,,
Maison de quartier Fontaine du Bac,Ville de Clermont-Ferrand,,,,Association,,"18 ter, Rue de la Fontaine-du-Bac 63000 CLERMONT-FERRAND",18 ter,Rue de la Fontaine du Bac,63000,63113,Clermont-Ferrand,Puy-de-Dôme,Auvergne-Rhône-Alpes,45.764425,3.121388,,Non,0473448733,,mq.fontaine-du-bac@ville-clermont-ferrand.fr,www.ville-clermont-ferrand.fr,,,,,,,,,,
Clim@63,,,,,Association,,26 Rue des Vaugondières - Ecole des Vaugondières 63370 LEMPDES,26,Rue des Vaugondières,63370,63193,Lempdes,Puy-de-Dôme,Auvergne-Rhône-Alpes,45.76729,3.191872,,Non,0671965545,,contact@climat63.net,climat63.free.fr,,,,,,,,,,
Médiathèque « Pays de Lapalisse »,Communauté de Communes Pays de Lapalisse,,,,Collectivité locale ou territoriale,,Place du Général Leclerc 3120 LAPALISSE,,Place Général Leclerc,29870,29117,Lannilis,Finistère,Bretagne,48.569575,-4.521451,,Non,0470991190,,mediatheque@cc-paysdelapalisse.fr,www.cc-paysdelapalisse.fr/Bien_Vivre-Services-Mediatheque.html,,,,,,,,,,
Point Information Jeunesse/ Point Cyb,M. le Maire,,,,Collectivité locale ou territoriale,,42-44 Place Jules Ferry 3400 YZEURE,44,Place Jules Ferry,03400,03321,Yzeure,Allier,Auvergne-Rhône-Alpes,46.566,3.355051,,Non,0470485338,,pij@ville-yzeure.com,www.ville-yzeure.com,,,,,,,,,,
Bibliothèque Municipale Riom es Montagnes,,,,,,,Avenue Monseigneur Martrou 15400 RIOM ES MONTAGNES,,Avenue Monseigneur Martrou,15400,15162,Riom-ès-Montagnes,Cantal,Auvergne-Rhône-Alpes,45.283333,2.661908,,Non,0471781436,,biblioth.riom.mgnes@wanadoo.fr,,,,,,,,,,,
Cyber base de Brioude,Communauté de communes du Brivadois,,,,Collectivité locale ou territoriale,,Avenue Léon Blum 43100 BRIOUDE,,Avenue Léon Blum,43100,43040,Brioude,Haute-Loire,Auvergne-Rhône-Alpes,45.290287,3.386123,,Non,0471745137,,cyberbasebrioude@orange.fr,,,,,,,,,,,
Centre d'animation Culturelle Camille Claudel,Ville de Clermont-Ferrand,,,,Association,,3 Rue du Maréchal Joffre 63000 CLERMONT-FERRAND,3,Rue Maréchal Joffre,63000,63113,Clermont-Ferrand,Puy-de-Dôme,Auvergne-Rhône-Alpes,45.775929,3.087609,,Non,0473423727,,msidiammi@ville-clermont-ferrand.fr,www.ville-clermont-ferrand.fr,,,,,,,,,,
Ecole Jules Michelet,Ville de Clermont-Ferrand,,,,Association,,8 Rue Antoine Bellet 63000 CLERMONT-FERRAND,8,Rue Antoine Bellet,63100,63113,Clermont-Ferrand,Puy-de-Dôme,Auvergne-Rhône-Alpes,45.788995,3.114172,,Non,0473256800,,msidiammi@ville-clermont-ferrand.fr,www.ville-clermont-ferrand.fr,,,,,,,,,,
Solidairnet,Association Chôm'Actif,,,,Association,,33 Rue de Vertaizon 63000 CLERMONT-FERRAND,33,Rue de Vertaizon,63000,63113,Clermont-Ferrand,Puy-de-Dôme,Auvergne-Rhône-Alpes,45.774555,3.09981,,Non,0473921404,,solidairnet@gmail.com,http://solidairnet.chomactif.fr,,,,,,,,,,
Bibliothèque de Cunlhat,,,,,,,4 Rue Saint Pierre 63590 CUNLHAT,4,Rue Saint-pièrre,63590,63132,Cunlhat,Puy-de-Dôme,Auvergne-Rhône-Alpes,45.632755,3.559385,,Non,0473723184,,cunlhat-bibliotheque@free.fr,,,,,,,,,,,
Médiathèque Saintt-Germain l'Herm,"Association ""Les Médiathèques du Haut-Livradois""",,,,Association,,Maison de l'animation 63630 SAINT-GERMAIN L'HERM,,Rue de la Convention,63630,63353,Saint-Germain-l'Herm,Puy-de-Dôme,Auvergne-Rhône-Alpes,45.457591,3.54238,,Non,0473720944,,bibstgermain@wanadoo.fr,http://asso.mhl.over-blog.org/,,,,,,,,,,
Espace Culturel La Pléiade,,,,,Association,,Place de la Butte 3600 COMMENTRY,,Place de la Butte,03600,03082,Commentry,Allier,Auvergne-Rhône-Alpes,46.287238,2.743076,,Non,470644060,,lapleiadecommentry@wanadoo.fr,,,,,,,,,,,
Point Information Jeunesse,Viltaïs,,,,Association,,5 bis Rue du 4 septembre 3150 VARENNES SUR ALLIER,5 bis,Rue du 4 Septembre,03150,03298,Varennes-sur-Allier,Allier,Auvergne-Rhône-Alpes,46.314317,3.399339,,Non,0470474595,,pij.varennes@viltais.eu,,,,,,,,,,,
Point d'accueil Escorailles,,,,,,,Le Bourg 15700 ESCORAILLES,,Le Bourg,15700,15064,Escorailles,Cantal,Auvergne-Rhône-Alpes,45.173235,2.327302,,Non,0471690033,,mairie.escorailles@wanadoo.fr,,,,,,,,,,,
Bibliothèque de Saint-Flour,,,,,,,60 Rue de Belloy 15100 SAINT FLOUR,60,Rue de Belloy,15100,15187,Saint-Flour,Cantal,Auvergne-Rhône-Alpes,45.034862,3.092401,,Non,0471602544,,bibliotheque.saintflour@wanadoo.fr,,,,,,,,,,,
Point Cyb du PIJ de Brioude,,,,,,,4 Avenue Victor Hugo 43100 BRIOUDE,4,Avenue Victor Hugo,43100,43040,Brioude,Haute-Loire,Auvergne-Rhône-Alpes,45.294866,3.381195,,Non,0471749724,,pij.brioude@free.fr,,,,,,,,,,,
Ecole Jean Moulin,Ville de Clermont-Ferrand,,,,Association,,Rue de la Pradelle 63000 CLERMONT-FERRAND,,Rue de la Pradelle,63000,63113,Clermont-Ferrand,Puy-de-Dôme,Auvergne-Rhône-Alpes,45.773257,3.095564,,Non,0473924370,,msidiammi@ville-clermont-ferrand.fr,www.ville-clermont-ferrand.fr,,,,,,,,,,
Médiathèque Croix de Neyrat,Ville de Clermont-Ferrand,,,,Association,,Place Alexandre Vialatte 63000 CLERMONT-FERRAND,,Rue Alexandre Ribot,63000,63113,Clermont-Ferrand,Puy-de-Dôme,Auvergne-Rhône-Alpes,45.766826,3.092557,,Non,0473256483,,msidiammi@ville-clermont-ferrand.fr,www.ville-clermont-ferrand.fr,,,,,,,,,,
Bibliothèque de Lempdes,,,,,,,Parc de la mairie 63370 LEMPDES,,Rue de la Source,63370,63193,Lempdes,Puy-de-Dôme,Auvergne-Rhône-Alpes,45.767993,3.198416,,Non,0473618641,,bbuisson@agglo-clermont.fr,,,,,,,,,,,
Point Information Jeunesse d'Olliergues,Communauté de Communes du Pays d'Olliergues,,,,Collectivité locale ou territoriale,,13 Avenue Maréchal de Lattre de Tassigny 63880 OLLIERGUES,13,Rue Mal de Lattre de Tassigny,63880,63258,Olliergues,Puy-de-Dôme,Auvergne-Rhône-Alpes,45.676775,3.637313,,Non,0473952958,,pij.ccpo@wanadoo.fr,,,,,,,,,,,
Espace Multimédia Gannat,,,,,,,12 Allée des Tilleuls 3800 GANNAT,12,Allée des Tilleuls,03800,03118,Gannat,Allier,Auvergne-Rhône-Alpes,46.097283,3.197147,,Non,0470903841,,multimedia@ville-gannat.fr,,,,,,,,,,,
Point Information Jeunesse Vichy Val d'Allier,,,,,Association,,9 Place de l'hôtel de ville 3200 VICHY,9,Place de l'Hotel de Ville,03200,03310,Vichy,Allier,Auvergne-Rhône-Alpes,46.124065,3.427966,,Non,0470310527,,pij@vichy-valallier.fr,www.info-jeunes.net,,,,,,,,,,
Point Cybercantal de Jussac,,,,,,,3 Allée des Pavillons 15250 JUSSAC,3,Allee des Pavillons,15250,15083,Jussac,Cantal,Auvergne-Rhône-Alpes,44.987912,2.421697,,Non,0471468636,,ecm@agglo-aurillac.org,www.agglo-aurillac.fr/ecm,,,,,,,,,,
Point Cybercantal de Sansac de Marmiesse,,,,,,,"Ecole publique, le bourg 15130 SANSAC DE MARMIESSE",,Le Bourg Haut,15130,15221,Sansac-de-Marmiesse,Cantal,Auvergne-Rhône-Alpes,44.885674,2.345764,,Non,0471477437,,,,,,,,,,,,,
Cyber 2000,Cyber 2000,,,,Association,,Rue du 11 novembre 43800 VOREY SUR ARZON,,Rue du 11 Novembre 1918,43800,43267,Vorey,Haute-Loire,Auvergne-Rhône-Alpes,45.186635,3.908804,,Non,0471013068,,cyber.vorey@cyber2000.fr,www.cyber2000.fr/,,,,,,,,,,
Ecole Edouard Herriot,Ville de Clermont-Ferrand,,,,Association,,26 Rue Albert Thomas 63000 CLERMONT-FERRAND,26,Rue Albert Thomas,63000,63113,Clermont-Ferrand,Puy-de-Dôme,Auvergne-Rhône-Alpes,45.762384,3.083717,,Non,0473930245,,ecole-elem.e-herriot.clermont.63@ac-clermont.fr,www.ville-clermont-ferrand.fr,,,,,,,,,,
Cyber-base Municipale de Cournon,Mairie de Cournon- d'Auvergne,,,,Collectivité locale ou territoriale,,4 Avenue Georges Clémenceau 63800 COURNON D'AUVERGNE,4,Avenue Georges Clémenceau,63800,63124,Cournon-d'Auvergne,Puy-de-Dôme,Auvergne-Rhône-Alpes,45.732123,3.192001,,Non,0473770330,,cyber-base@cournon-auvergne.fr,www.cournon-auvergne.fr,,,,,,,,,,
Maison de Service (salle informatique),,,,,,,Avenue du Maronnier 63380 PONTAUMUR,,Avenue du Marronnier,63380,63283,Pontaumur,Puy-de-Dôme,Auvergne-Rhône-Alpes,45.867981,2.67525,,Non,,,hautecombraille@wanadoo.fr,,,,,,,,,,,
La Quinaude,Association des montagnards internautes,,,,Association,,48 Rue Francisque Driffort 3250 LE MAYET DE MONTAGNE,48,Rue Francisque Drifford,03250,03165,Le Mayet-de-Montagne,Allier,Auvergne-Rhône-Alpes,46.070874,3.667076,,Non,0470593309,,ami@laquinaude.info,www.laquinaude.info,,,,,,,,,,
PRATIC Auvergne,,,,,Association,,"27, Quai Louis Blanc 3100 MONTLUÇON",27,Quai Louis Blanc,03100,03185,Montluçon,Allier,Auvergne-Rhône-Alpes,46.345848,2.599477,,Non,470028070,,vriot@auvergne.cci.fr,www.pratic.org,,,,,,,,,,
PRATIC Auvergne,,,,,Association,,44 Boulevard du Pont Rouge 15000 AURILLAC,44,Boulevard du Pont Rouge,15000,15014,Aurillac,Cantal,Auvergne-Rhône-Alpes,44.926895,2.448049,,Non,0471454052,,lforestier@auvergne.cci.fr,www.pratic.org,,,,,,,,,,
Maison des services du pays de Murat,Communauté de communes du pays de Murat,,,,Collectivité locale ou territoriale,,"4, Rue Faubourg Notre-Dame 15300 MURAT",4,Rue du Faubourg Nôtre-dame,15300,15138,Murat,Cantal,Auvergne-Rhône-Alpes,45.11087,2.869814,,Non,0471202888,,mds@paysdemurat.fr,www.paysdemurat.fr/mds,,,,,,,,,,
Cyber-base pro - La Chaise Dieu,,,,,,,Place Lafayette 43160 LA CHAISE DIEU,,Place la Fayette,43160,43048,La Chaise-Dieu,Haute-Loire,Auvergne-Rhône-Alpes,45.320885,3.696772,,Non,0471000235,,avinin@cyber-base.org,www.cyber-base.org/cyberbase/accueil/minisite.do?idSiteMinisite=184,,,,,,,,,,
EPN (Espace Public Numérique) Blanzat,,,,,Collectivité locale ou territoriale,,Rue de reilhat 63112 BLANZAT,,Rue de Reilhat,63112,63042,Blanzat,Puy-de-Dôme,Auvergne-Rhône-Alpes,45.828659,3.075668,,Non,0473874040,,epn.blanzat@orange.fr,www.ville-blanzat.fr,,,,,,,,,,
Ecole Victor Hugo,Ville de Clermont-Ferrand,,,,Association,,51 Rue Fontaine du Bac 63000 CLERMONT-FERRAND,51,Rue de la Fontaine du Bac,63000,63113,Clermont-Ferrand,Puy-de-Dôme,Auvergne-Rhône-Alpes,45.765195,3.120034,,Non,0473264705,,msidiammi@ville-clermont-ferrand.fr,www.ville-clermont-ferrand.fr,,,,,,,,,,
Médiathèque René Char,,,,,,,Parvis Raoul-Ollier 63500 ISSOIRE,,Rue Raoul Bardy,63500,63178,Issoire,Puy-de-Dôme,Auvergne-Rhône-Alpes,45.542414,3.253416,,Non,0473892494,,mediatheque.issoire@gmail.com,www.issoire.orweb.c3rb.org,,,,,,,,,,
Médiathèque Communautaire,Clermont-Communauté,,,,Établissement public à caractère industriel et commercial (EPIC),,Rue de la Poste 63122 SAINT-GENÈS-CHAMPANELLE,,Rue de la Roche,63122,63345,Saint-Genès-Champanelle,Puy-de-Dôme,Auvergne-Rhône-Alpes,45.737834,3.024864,,Non,0463669538,,bibliotheque.saintgeneschampanelle@agglo-clermont.fr,http://pagesperso-orange.fr/mairie.sgc/mediatheque/mediatheque.htm,,,,,,,,,,
Médiathèque municipale,,,,,,,28 Rue des Faucheroux 3100 MONTLUCON,28,Rue des Faucheroux,03100,03185,Montluçon,Allier,Auvergne-Rhône-Alpes,46.331638,2.604529,,Non,0470055445,,ecm.montlucon@wanadoo.fr,www.mairie-montlucon.fr/,,,,,,,,,,
Point d'accueil Barriac les Bosquets,,,,,,,"Mairie, le bourg 15700 BARRIAC LES BOSQUETS",,Le Bac,15700,15018,Barriac-les-Bosquets,Cantal,Auvergne-Rhône-Alpes,45.140325,2.27197,,Non,0471404038,,mairie.barriac@wanadoo.fr,,,,,,,,,,,
Point Cybercantal de Ruynes en Margeride,,,,,,,"Bibliothèque, Le bourg 15320 RUYNES EN MARGERIDE",,Le Bourg Nord,15320,15168,Ruynes-en-Margeride,Cantal,Auvergne-Rhône-Alpes,45.003401,3.222032,,Non,0471234159,,mairieruynes@yahoo.fr,www.margeride-truyere.com/,,,,,,,,,,
Centre Multimédia,,,,,Association,,1 Rue de L'église 43220 DUNIÈRES,1,Rue de l'Eglise,43220,43087,Dunières,Haute-Loire,Auvergne-Rhône-Alpes,45.217687,4.342642,,Non,0471619608,,informatique.dunieres@wanadoo.fr,,,,,,,,,,,
Ecole Aristide Briand,Ville de Clermont-Ferrand,,,,Association,,Rue Saint Simon 63000 CLERMONT-FERRAND,,Rue Saint Simon,63000,63113,Clermont-Ferrand,Puy-de-Dôme,Auvergne-Rhône-Alpes,45.772577,3.075365,,Non,0473935287,,ecole-elem.a-briand.clermont.63@ac-clermont.fr,www.ville-clermont-ferrand.fr,,,,,,,,,,
Ecole Pierre et Marie Curie,Ville de Clermont-Ferrand,,,,Association,,178 Rue Abbé Prévost 63000 CLERMONT-FERRAND,178,Rue Abbe Prevost,63100,63113,Clermont-Ferrand,Puy-de-Dôme,Auvergne-Rhône-Alpes,45.793533,3.075595,,Non,0473375046,,ecole-elem.pm-curie.clermont.63@ac-clermont.fr,www.ville-clermont-ferrand.fr,,,,,,,,,,
Maison des Jeunes,Mairie d'Issoire,,,,Collectivité locale ou territoriale,,Chemin de la Fraternité 63500 ISSOIRE,,Chemin de la Fraternite,63500,63178,Issoire,Puy-de-Dôme,Auvergne-Rhône-Alpes,45.544008,3.255517,,Non,0473551429,,mj.issoire@orange.fr,www.issoire.fr,,,,,,,,,,
Point Info Jeune Gannat (Euréka PIJ),,,,,,,8 Avenue St James 3800 GANNAT,8,Avenue Saint-james,03800,03118,Gannat,Allier,Auvergne-Rhône-Alpes,46.097282,3.198146,,Non,0470902670,,eureka@ville-gannat.fr,www.bassin-gannat.com/,,,,,,,,,,
Salle Multimédia Yzeure,,,,,,,La Plaine Bodin 3400 YZEURE,,Impasse de la Plaine,37290,37282,Yzeures-sur-Creuse,Indre-et-Loire,Centre-Val de Loire,46.78838,0.85612,,Non,0470340567,,mairie.yzeure@wanadoo.fr,,,,,,,,,,,
Espace Numérique  du pays de Pierrefort,,,,,,,6 Côte de Chabridet 15230 PIERREFORT,6,Côte de Chabridet,15230,15152,Pierrefort,Cantal,Auvergne-Rhône-Alpes,44.921941,2.841145,,Non,0481915094,,jean.phi@paysdepierrefort.com,www.paysdepierrefort.com/,,,,,,,,,,
Point Cybercantal Yolet,,,,,,,"Ecole de Yolet, le bourg 15130 YOLET",,Rue de l'Ecole,15130,15266,Yolet,Cantal,Auvergne-Rhône-Alpes,44.927908,2.53266,,Non,0471474511,,,,,,,,,,,,,
Collège Albert Camus,Ville de Clermont-Ferrand,,,,Association,,Rue du sous marin casabianca 63100 CLERMONT-FERRAND,,Rue du Sous-marin Casabianca,63100,63113,Clermont-Ferrand,Puy-de-Dôme,Auvergne-Rhône-Alpes,45.808176,3.108002,,Non,,,msidiammi@ville-clermont-ferrand.fr,www.ville-clermont-ferrand.fr,,,,,,,,,,
Ecole Diderot,Ville de Clermont-Ferrand,,,,Association,,10 Rue Diderot 63000 CLERMONT-FERRAND,10,Rue Diderot,63100,63113,Clermont-Ferrand,Puy-de-Dôme,Auvergne-Rhône-Alpes,45.804642,3.112923,,Non,0473242824,,msidiammi@ville-clermont-ferrand.fr,www.ville-clermont-ferrand.fr,,,,,,,,,,
Espace Info Jeunes Auvergne,Espace Info Jeunes,,,,Association,,"5, Rue Saint Genès 63000 CLERMONT-FERRAND",5,Rue Saint-genes,63000,63113,Clermont-Ferrand,Puy-de-Dôme,Auvergne-Rhône-Alpes,45.777031,3.085432,,Non,0473923050,,espace.info.jeunes@orange.fr,www.espaceinfojeunes.net,,,,,,,,,,
Bibliothèque d'Egliseneuve-près-Billom,,,,,,,Le Bourg 63160 EGLISENEUVE PRES BILLOM,,Égliseneuve-près-Billom,63160,63146,Égliseneuve-près-Billom,Puy-de-Dôme,Auvergne-Rhône-Alpes,45.7188,3.3875,,Non,0473685621,,bib.egliseneuve.p.b@wanadoo.fr,,,,,,,,,,,
Bibliothèque Ainay le Château,,,,,,,Place du Champ de Foire 3360 AINAY LE CHATEAU,,Place du Champ de Foire,03360,03003,Ainay-le-Château,Allier,Auvergne-Rhône-Alpes,46.710849,2.694255,,Non,0470079745,,mediatheque-ainay@wanadoo.fr,,,,,,,,,,,
Point Information Jeunesse de Moulins,Association Viltaïs,,,,Association,,Place de l'hôtel de ville 3000 MOULINS,,Ville Hotel,35360,35171,Médréac,Ille-et-Vilaine,Bretagne,48.26975,-2.021073,,Non,0470473492,,pij.moulins@viltais.eu,,,,,,,,,,,
Point accès informatique Cybercantal,Conseil général du Cantal,,,,Collectivité locale ou territoriale,,Mairie 15350 CHAMPAGNAC,,Champagnac,15350,15037,Champagnac,Cantal,Auvergne-Rhône-Alpes,45.363855,2.410087,,Non,0471696155,,mairie.champagnac@wanadoo.fr,www.champagnac.org,,,,,,,,,,
Collège Blaise Pascal Point Cybercantal,,,,,,,"Collège, Rue Blaise Pascal 15100 SAINT FLOUR",,Rue Blaise Pascal,15100,15187,Saint-Flour,Cantal,Auvergne-Rhône-Alpes,45.036032,3.088454,,Non,0471600125,,,,,,,,,,,,,
Point Information jeunesse du Velay,,,,,Association,,"28, Rue Vibert 43000 LE PUY EN VELAY",28,Rue Vibert,43000,43157,Le Puy-en-Velay,Haute-Loire,Auvergne-Rhône-Alpes,45.041145,3.882122,,Non,0471040446,,valerie.pronier@pij-velay.org,www.pij-velay.org,,,,,,,,,,
Ecole Alphonse Daudet,Ville de Clermont-Ferrand,,,,Association,,16 b Rue Torpilleur Sirocco 63000 CLERMONT-FERRAND,16 bis,Rue du Torpilleur Sirocco,63100,63113,Clermont-Ferrand,Puy-de-Dôme,Auvergne-Rhône-Alpes,45.813574,3.105832,,Non,0473243009,,msidiammi@ville-clermont-ferrand.fr,www.ville-clermont-ferrand.fr,,,,,,,,,,
Maison de quartier Château des Vergnes,Ville de Clermont-Ferrand,,,,Association,,Rue du Château-des-Vergnes 63000 CLERMONT-FERRAND,,Rue du Chateau des Vergnes,63100,63113,Clermont-Ferrand,Puy-de-Dôme,Auvergne-Rhône-Alpes,45.814491,3.128199,,Non,0473248585,,mq.chateau-des-vergnes@ville-clermont-ferrand.fr,www.ville-clermont-ferrand.fr,,,,,,,,,,
Point Information Jeunesse,,,,,Association,,Centre Commercial Auchan - Rue du torpilleur sirocco 63100 CLERMONT-FERRAND,,Rue du Torpilleur Sirocco,63100,63113,Clermont-Ferrand,Puy-de-Dôme,Auvergne-Rhône-Alpes,45.816262,3.106065,,Non,0473230220,,pij-neyrat@lamif.com,,,,,,,,,,,
Clim@63,,,,,,,1 Rue des Granges 63370 Lempdes,1,Rue des Granges,63370,63193,Lempdes,Puy-de-Dôme,Auvergne-Rhône-Alpes,45.76852,3.194644,,Non,,,,,,,,,,,,,,
Espace Multimédia,,,,,,,"Relais des Services Publics, 5 Le Plessis 3130 LE DONJON",,Le Plessis,03130,03103,Le Donjon,Allier,Auvergne-Rhône-Alpes,46.35091,3.796341,,Non,0470996989,,rsp-ledonjonvallibre@orange.fr,www.donjonvallibre.com/emploi_relais.asp,,,,,,,,,,
Centre de Ressources Pierre Gallery,,,,,,,1 Avenue Jean Moulin 15500 AURIAC L EGLISE,1,Route d'Auriac l'Eglise,15500,15119,Massiac,Cantal,Auvergne-Rhône-Alpes,45.251446,3.198341,,Non,0471230354,,,,,,,,,,,,,
Médiathèque Intercommunale du Pays de Massiac,Communauté de Communes du Pays de Massiac,,,,Établissement public à caractère industriel et commercial (EPIC),,Rue Albert Chalvet 15500 MASSIAC,,Rue Albert Chalvet,15500,15119,Massiac,Cantal,Auvergne-Rhône-Alpes,45.250095,3.199871,,Non,0471231779,,mediathequepaysdemassiac@orange.fr,www.cc-paysdemassiac.fr/,,,,,,,,,,
Maison des Jeunes et de la Culture,,,,,,,Parc de la Liberté Avenue de Firminy 43110 AUREC SUR LOIRE,,Avenue de Firminy,43110,43012,Aurec-sur-Loire,Haute-Loire,Auvergne-Rhône-Alpes,45.369474,4.201,,Non,0477354159,,mjc-aurec@wanadoo.fr,,,,,,,,,,,
Mediathèque du Sancy,,,,,,,"13, Rue Notre Dame 63610 BESSE ET ST ANASTAISE",13,Rue Notre Dame,63610,63038,Besse-et-Saint-Anastaise,Puy-de-Dôme,Auvergne-Rhône-Alpes,45.511727,2.933303,,Non,0473785083,,plp.besse@cc-massifdusancy.fr,,,,,,,,,,,
Ecole Jules Ferry,Ville de Clermont-Ferrand,,,,Association,,6 Boulevard Trudaine 63000 CLERMONT-FERRAND,6,Boulevard Trudaine,63000,63113,Clermont-Ferrand,Puy-de-Dôme,Auvergne-Rhône-Alpes,45.77889,3.090499,,Non,0473922082,,ecole-elem.j-ferry.clermont.63@ac-clermont.fr,www.ville-clermont-ferrand.fr,,,,,,,,,,
Médiathèque Hugo-Pratt,,,,,,,Rue Pierre-Jacquet 63800 COURNON D'AUVERGNE,,Rue Pierre Jacquet,63800,63124,Cournon-d'Auvergne,Puy-de-Dôme,Auvergne-Rhône-Alpes,45.737699,3.19256,,Non,0473983500,,bibliotheque.cournon@agglo-clermont.fr,,,,,,,,,,,
Centre Social et Culturel Espace Couriat,,,,,Association,,Place José moron 63200 RIOM,,Place Soanen,63200,63300,Riom,Puy-de-Dôme,Auvergne-Rhône-Alpes,45.895608,3.114176,,Non,0473388967,,contact@espacecouriat.fr,http://www.espacecouriat.fr,,,,,,,,,,
Maison des Services Vallée de l'Ance,Communauté de Communes de la Vallée de l'Ance,,,,Collectivité locale ou territoriale,,Maison Granet - Place de l'Eglise 63840 VIVEROLS,,Route des Maisons Neuves,63840,63465,Viverols,Puy-de-Dôme,Auvergne-Rhône-Alpes,45.436146,3.881747,,Non,0473953640,,centre.ressources.val-dance@wanadoo.fr,http://www.ccvalleedelance.eu/la-maison-des-services/,,,,,,,,,,
Cyber Base Yannick Paul,Mairie de Montluçon,,,,Collectivité locale ou territoriale,,Rue des Hirondelles 3100 MONTLUÇON,,Rue des Hirondelles,03100,03185,Montluçon,Allier,Auvergne-Rhône-Alpes,46.34274,2.576858,,Non,0470022737,,e.chalus@cyber-base.org,www.montlucon.cyber-base.org/,,,,,,,,,,
Cyberc@ntal Condat,Communauté de Communes du Cézallier,,,,Établissement public à caractère industriel et commercial (EPIC),,Le Bourg 15190 CONDAT,,Route de Bort,15190,15054,Condat,Cantal,Auvergne-Rhône-Alpes,45.340454,2.757277,,Non,0471786833,,olivier@cezallier.org,www.cezallier.org,,,,,,,,,,
Espace Culture Multimédia Pays de Mauriac,,,,,Association,,Rue du 11 novembre 15200 MAURIAC,,Rue du 11 Novembre,15200,15120,Mauriac,Cantal,Auvergne-Rhône-Alpes,45.218512,2.332819,,Non,0471673581,,espace.multimedia@paysdemauriac.fr,www.mediatheque.paysdemauriac.fr/,,,,,,,,,,
Point Cybercantal de Saint-Mamet La Slavetat,,,,,,,"Ecole, Le bourg 15220 SAINT MAMET LA SALVETAT",,Le Bourg,15220,15196,Saint-Mamet-la-Salvetat,Cantal,Auvergne-Rhône-Alpes,44.858009,2.305448,,Non,0471493330,,,,,,,,,,,,,
Espace multimédia Clic@Rosières,Association Clic@rosières,,,,Association,,Place des anciens combattants 43800 ROSIÈRES,,Place des Anciens Combattants,43800,43165,Rosières,Haute-Loire,Auvergne-Rhône-Alpes,45.13187,3.98564,,Non,0471579100,,clicarosieres@wanadoo.fr,www.clicarosieres.fr,,,,,,,,,,
Ecole Chanterrane,Ville de Clermont-Ferrand,,,,Association,,131 Rue Champfleuri 63000 CLERMONT-FERRAND,131,Rue Champfleuri,63100,63113,Clermont-Ferrand,Puy-de-Dôme,Auvergne-Rhône-Alpes,45.792582,3.097412,,Non,0473923968,,msidiammi@ville-clermont-ferrand.fr,www.ville-clermont-ferrand.fr,,,,,,,,,,
Espace citoyen,Ville de Clermont-Ferrand,,,,Association,,4 Rue André-Moinier 63000 CLERMONT-FERRAND,4,Rue André Moinier,63000,63113,Clermont-Ferrand,Puy-de-Dôme,Auvergne-Rhône-Alpes,45.780683,3.084702,,Non,0473423719,,citejeune@ville-clermont-ferrand.fr,www.ville-clermont-ferrand.fr,,,,,,,,,,
EPN Nohanent,,,,,,,Maison de Bourg - 1 place de la Barreyre 63830 NOHANENT,1,Place de la Barreyre,63830,63254,Nohanent,Puy-de-Dôme,Auvergne-Rhône-Alpes,45.809447,3.057376,,Non,,,,,,,,,,,,,,
Point Cyb - Montluçon,,,,,Collectivité locale ou territoriale,,22 Rue des Forges 3100 MONTLUCON,22,Rue des Forges,03100,03185,Montluçon,Allier,Auvergne-Rhône-Alpes,46.337731,2.607608,,Non,0470022710,,pointcyb.montlucon@wanadoo.fr,www.espaceinfojeunes.net/,,,,,,,,,,
Centre Social de Marmiers,Centre social de Marmiers,,,,Association,,"10, Rue Raymond Cortat 15000 AURILLAC",10,Rue Raymond Cortat,15000,15014,Aurillac,Cantal,Auvergne-Rhône-Alpes,44.911515,2.436799,,Non,0471646344,,centre-social-marmiers@wanadoo.fr,www.centresocial.fr,,,,,,,,,,
Foyer des Jeunes de Mauriac,,,,,,,Rue du 8 Mai 15200 MAURIAC,,Rue du 8 Mai 1945,15200,15120,Mauriac,Cantal,Auvergne-Rhône-Alpes,45.216884,2.334064,,Non,0471681349,,la.cremaillere@wanadoo.fr,,,,,,,,,,,
Cybercentre d'Ydes,Commune d'Ydes,,,,Collectivité locale ou territoriale,,2 Rue du Docteur Basset 15210 YDES,2,Rue Docteur Alfred Basset,15210,15265,Ydes,Cantal,Auvergne-Rhône-Alpes,45.346098,2.436108,,Non,0471408351,,techmaster@ydes.fr,www.ydes.fr/?cybercentre,,,,,,,,,,
Point Info du Pays d'Arlanc,Communauté de Communes du Pays d'Arlanc,,,,Collectivité locale ou territoriale,,"Bilupo, 51 Route Nationale 63220 ARLANC",51,Route Nationale,63220,63010,Arlanc,Puy-de-Dôme,Auvergne-Rhône-Alpes,45.414698,3.724443,,Non,0473950899,,pointinfo-arlanc@orange.fr,www.arlanc.com/,,,,,,,,,,
Ecole Romain Rolland,Ville de Clermont-Ferrand,,,,Association,,33 Rue Château des Vergnes 63000 CLERMONT-FERRAND,,Rue du Chateau des Vergnes,63100,63113,Clermont-Ferrand,Puy-de-Dôme,Auvergne-Rhône-Alpes,45.814491,3.128199,,Non,0473240506,,msidiammi@ville-clermont-ferrand.fr,www.ville-clermont-ferrand.fr,,,,,,,,,,
Videoformes,Videoformes,,,,Association,,64 Rue Lamartine 63000 CLERMONT-FERRAND,64,Rue Lamartine,63000,63113,Clermont-Ferrand,Puy-de-Dôme,Auvergne-Rhône-Alpes,45.77731,3.078712,,Non,0473170217,,videoformes@videoformes.com,www.videoformes.com,,,,,,,,,,
Médiathèque Sancy Artense,Sancy Artense Communauté,,,,Collectivité locale ou territoriale,,Rue du Thuel 63690 TAUVES,,Rue du Thuel,63690,63426,Tauves,Puy-de-Dôme,Auvergne-Rhône-Alpes,45.560845,2.623029,,Non,0473211873,,mediatheque@sancy-artense.com,http://www.sancy-artense.com,,,,,,,,,,
Association FJT L'Escale,"Foyer des Jeunes Travailleurs ""L'Escale""",,,,Association,,20 Avenue de Fontbouillant 3100 MONTLUÇON,20,Avenue de Fontbouillant,03100,03185,Montluçon,Allier,Auvergne-Rhône-Alpes,46.328151,2.579235,,Non,0470033444,,fjt.fontbouillant@wanadoo.fr,www.monsite.wanadoo.fr/fjt.fontbouillant/,,,,,,,,,,
Point Cybercantal d'Aurillac,,,,,,,"Médiathèque communautaire, Rue du 139ème Régiment d'Infanterie 15000 AURILLAC",,Rue du 139e Rgt d'Infanterie,15000,15014,Aurillac,Cantal,Auvergne-Rhône-Alpes,44.924339,2.443765,,Non,0471468636,,mediatheque@agglo-aurillac.org,www.mediatheque.caba.fr/Ateliers_Multimedia-96-194-322.html,,,,,,,,,,
Point d'accès Saint-Christophe,,,,,,,Le Bourg 15700 PLEAUX,,Le Bourg,15700,15153,Pleaux,Cantal,Auvergne-Rhône-Alpes,45.191454,2.217727,,Non,0471404118,,,,,,,,,,,,,
Cyber-Base,Maison Pour Tous,,,,Association,,Maison Pour Tous - 1 Route de Coubon 43700 BRIVES-CHARENSAC,1,Route de Coubon,43700,43041,Brives-Charensac,Haute-Loire,Auvergne-Rhône-Alpes,45.045533,3.925217,,Non,0471024569,,laurie.cartal@wanadoo.fr,www.maisonpourtous-brives43.fr,,,,,,,,,,
PRATIC Auvergne,,,,,Association,,16 Boulevard Bertrand 43000 LE PUY EN VELAY,16,Boulevard Bertrand de Doue,43000,43157,Le Puy-en-Velay,Haute-Loire,Auvergne-Rhône-Alpes,45.042329,3.893153,,Non,0471040440,,cmasclaux@auvergne.cci.fr,www.pratic.org,,,,,,,,,,
PRATIC Auvergne,,,,,Association,,14 Rue Jean Claret 63000 CLERMONT FERRAND,14,Rue Jean Claret,63000,63113,Clermont-Ferrand,Puy-de-Dôme,Auvergne-Rhône-Alpes,45.767281,3.13296,,Non,0473150610,,cfaure@auvergne.cci.fr,www.pratic.org/,,,,,,,,,,
Ecole Victor Duruy,Ville de Clermont-Ferrand,,,,Association,,30 Rue Châteaudun 63000 CLERMONT-FERRAND,30,Rue de Chateaudun,63000,63113,Clermont-Ferrand,Puy-de-Dôme,Auvergne-Rhône-Alpes,45.780753,3.099623,,Non,0473915693,,ecole-elem.v-duruy.clermont.63@ac-clermont.fr,www3.ac-clermont.fr/etabliss/ecole-victorduruy-clfd63/index.htm,,,,,,,,,,
Centre Alphonse Daudet,,,,,,,Rue du moulin du Roy 63360 GERZAT,,Rue Moulin du Roy,63360,63164,Gerzat,Puy-de-Dôme,Auvergne-Rhône-Alpes,45.825978,3.15064,,Non,0473250014,,,,,,,,,,,,,
Médiathèque de la Comté,,,,,,,Couvent des Dames 63270 VIC LE COMTE,,Impasse des Dames,63270,63457,Vic-le-Comte,Puy-de-Dôme,Auvergne-Rhône-Alpes,45.644117,3.243187,,Non,0473691878,,media.comte@wanadoo.fr,,,,,,,,,,,
Espace Cyber-base Ysatis,,,,,,,Boulevard Jean-Moulin 3400 YZEURE,,Boulevard Jean Moulin,03400,03321,Yzeure,Allier,Auvergne-Rhône-Alpes,46.553625,3.357617,,Non,0470340567,,cyber-base@ville-yzeure.com,www.ville-yzeure.com/,,,,,,,,,,
Cyberespace de la FAL,,,,,,,"Chalet des Galinottes, prairie des Sagnes 15300 LAVEISSIERE",,Les Sagnes,15300,15101,Laveissière,Cantal,Auvergne-Rhône-Alpes,45.086006,2.747211,,Non,0471495051,,chalet-des-galinottes@wanadoo.fr,www.galinottes.net/,,,,,,,,,,
Bibliothèque de Valuéjols,,,,,,,Salle des Fêtes Valuéjols 15300 VALUEJOLS,,Salle des Fetes,16150,16345,Saint-Quentin-sur-Charente,Charente,Nouvelle-Aquitaine,45.838677,0.669087,,Non,0471732690,,,,,,,,,,,,,
Cyber-base d'Yssingeaux,Mairie d'Yssingeaux,,,,Collectivité locale ou territoriale,,La Grenette Place de la Victoire 43200 YSSINGEAUX,,Place de la Victoire,43200,43268,Yssingeaux,Haute-Loire,Auvergne-Rhône-Alpes,45.143692,4.124161,,Non,0471657922,,jpandraud@cyberbase.org,www.cyber-base.org,,,,,,,,,,
Ecole Anatole France,Ville de Clermont-Ferrand,,,,Association,,158 Rue Anatole France 63000 CLERMONT-FERRAND,158,Rue Anatole France,63000,63113,Clermont-Ferrand,Puy-de-Dôme,Auvergne-Rhône-Alpes,45.778787,3.111999,,Non,0473920868,,msidiammi@ville-clermont-ferrand.fr,www.ville-clermont-ferrand.fr,,,,,,,,,,
Ecole Ferdinand Buisson,Ville de Clermont-Ferrand,,,,Association,,Rue Gustave Courbet 63000 CLERMONT-FERRAND,,Rue Gustave Courbet,63100,63113,Clermont-Ferrand,Puy-de-Dôme,Auvergne-Rhône-Alpes,45.798046,3.114884,,Non,0473248415,,msidiammi@ville-clermont-ferrand.fr,www.ville-clermont-ferrand.fr,,,,,,,,,,
Public Info,Ville de Clermont-Ferrand,,,,Association,,"2, Rue tourette 63100 CLERMONT-FERRAND",2,Rue Tourrette,63100,63113,Clermont-Ferrand,Puy-de-Dôme,Auvergne-Rhône-Alpes,45.799975,3.1174,,Non,,,msidiammi@ville-clermont-ferrand.fr,www.ville-clermont-ferrand.fr,,,,,,,,,,
Espace public numérique de Pont-du-Château,,,,,Association,,"11, Rue de la poste 63430 PONT DU CHATEAU",11,Rue de la Poste,63430,63284,Pont-du-Château,Puy-de-Dôme,Auvergne-Rhône-Alpes,45.798096,3.249492,,Non,0473623361,,,,,,,,,,,,,
Point Information Jeunesse,,,,,Collectivité locale ou territoriale,,Rue de l'Hôtel de Ville 3600 COMMENTRY,,Rue de l'Hôtel de Ville,03600,03082,Commentry,Allier,Auvergne-Rhône-Alpes,46.289002,2.741797,,Non,0470092836,,pijcommentry@wanadoo.fr,,,,,,,,,,,
Salle Multimédia Trévol,,,,,,,2 Rue Four à Chaux 3460 TREVOL,2,Rue du Four à Chaux,03460,03290,Trévol,Allier,Auvergne-Rhône-Alpes,46.629994,3.304274,,Non,0470426120,,,,,,,,,,,,,
Maison des Services et du Tourisme,,,,,,,"25, Avenue de la Gare 15170 NEUSSARGUES-MOISSAC",25,Rue de la Gare,15170,15141,Neussargues en Pinatelle,Cantal,Auvergne-Rhône-Alpes,45.125629,2.976712,,Non,,,,,,,,,,,,,,
Point Cybercantal de Vic sur Cère,,,,,,,"Collège Jean de la Fontaine, Rue des Vergnes 15800 VIC SUR CERE",,Rue des Vergnes,15800,15258,Vic-sur-Cère,Cantal,Auvergne-Rhône-Alpes,44.988166,2.640627,,Non,0471478900,,,,,,,,,,,,,
Point Cyb,Bureau information jeunesse,,,,Association,,Place du châtelet 63600 AMBERT,,Rue du Chatelet,63600,63003,Ambert,Puy-de-Dôme,Auvergne-Rhône-Alpes,45.550167,3.741691,,Non,0473829743,,pointinfojeunes-ambert@orange.fr,www.pointinfojeunes-ambert.fr,,,,,,,,,,
EPN (Espace Public Numérique) Boissejour,,,,,,,Rue Frédéric Brunmurol 63122 CEYRAT,,Rue Frédéric Brunmurol,63122,63070,Ceyrat,Puy-de-Dôme,Auvergne-Rhône-Alpes,45.733434,3.064241,,Non,0679056158,,,,,,,,,,,,,
Ecole Jean Jaurés,Ville de Clermont-Ferrand,,,,Association,,14 Rue Albert Mallet 63000 CLERMONT-FERRAND,14,Rue Albert Mallet,63000,63113,Clermont-Ferrand,Puy-de-Dôme,Auvergne-Rhône-Alpes,45.764666,3.09109,,Non,0473266002,,ecole-elem.j-jaures.clermont.63@ac-clermont.fr,www.perso.wanadoo.fr/ecole-jjaures.clfd63/,,,,,,,,,,
Maison de quartier Saint-Jacques,Ville de Clermont-Ferrand,,,,Association,,Rue Baudelaire 63000 CLERMONT-FERRAND,,Rue Baudelaire,63000,63113,Clermont-Ferrand,Puy-de-Dôme,Auvergne-Rhône-Alpes,45.759889,3.094846,,Non,0473147369,,mq.saint-jacques@ville-clermont-ferrand.fr,www.ville-clermont-ferrand.fr,,,,,,,,,,
Centre Social et Culturel Joseph Gaidier,,,,,Association,,"A.R.A.S.C. 12 , Avenue de la Libération 63200 RIOM",12,Avenue de la Liberation,63200,63300,Riom,Puy-de-Dôme,Auvergne-Rhône-Alpes,45.889854,3.113431,,Non,0473386066,,sophie@centregaidier.fr,http://www.centregaidier.fr,,,,,,,,,,
