nom,structure_porteuse,description,type_lieu,statut,nature_juridique,siret,adresse_brut,adresse_numero,adresse_rue,adresse_code_postal,adresse_code_insee,adresse_commune,adresse_departement,adresse_region,latitude,longitude,itinerant,en_ligne,contact_telephone,contact_telephone_details,contact_email,contact_web,contact_facebook,horaires_ouverture_brut,horaires_ouverture_osm,public_cible,modalites_acces,modalites_accompagnement,tarifs,accessibilite,services,labels
Centre Communal d'Action Sociale (CCAS) d'Amiens,,,"Commune (Ville, CCAS, Centre Culturel...)",,Groupement d'intérêt public (GIP),,10 rue Gresset 80000 Amiens,10,Rue Gresset,80000,80021,Amiens,Somme,Hauts-de-France,49.893902,2.29446,,Non,,,,,,,,,,,,,,
CAF Somme,,,"Organisme de sécurité sociale (CAF, CPAM, CARSAT, MSA...)",,,,9 Boulevard Maignan Larivière 80000 Amiens,9,Boulevard Maignan Lariviere,80000,80021,Amiens,Somme,Hauts-de-France,49.889667,2.293374,,Non,,,sabrina.rimbault@cafsomme.cnafmail.fr,https://www.caf.fr/,,Du lundi au vendredi : 09:00-12:00 et 14:00-16:30 / Samedi : 09:00-12:00,"Mo-Fr 09:00-12:00,14:00-16:30; Sa 09:00-12:00",Allocataires,,,,,,
Point d'accueil numérique - Sous-Préfecture de Béthune,,,,,Groupement d'intérêt public (GIP),,181 rue Gambetta 62400 Béthune,181,Rue Leon Gambetta,62400,62119,Béthune,Pas-de-Calais,Hauts-de-France,50.532877,2.637306,,Non,,,,http://www.pas-de-calais.gouv.fr/Actualites/Actualites/Les-points-d-accueil-numerique-a-la-prefecture-et-dans-les-sous-prefectures,,Du lundi au vendredi : 09:00-12:00 et 13:30-16:00,"Mo-Fr 09:00-12:00,13:30-16:00",Tout public,,,,,,
Point d'accueil numérique - Sous-Préfecture de Boulogne-sur-Mer,,,,,Groupement d'intérêt public (GIP),,131 Grand Rue 62321 Boulogne-sur-Mer,,Rue de Boulogne,62131,62848,Verquin,Pas-de-Calais,Hauts-de-France,50.514134,2.634351,,Non,,,,http://www.pas-de-calais.gouv.fr/Actualites/Actualites/Les-points-d-accueil-numerique-a-la-prefecture-et-dans-les-sous-prefectures,,Du lundi au vendredi : 08:00-11:30 et 13:30-16:00,"Mo-Fr 08:00-11:30,13:30-16:00",Tout public,,,,,,
Point d'accueil numérique - Sous-Préfecture de Calais,,,,,Groupement d'intérêt public (GIP),,9 Esplanade Jacques Vendroux 62107 Calais,9,Esplanade Jacques Vendroux,62100,62193,Calais,Pas-de-Calais,Hauts-de-France,50.956297,1.845627,,Non,,,,http://www.pas-de-calais.gouv.fr/Actualites/Actualites/Les-points-d-accueil-numerique-a-la-prefecture-et-dans-les-sous-prefectures,,Du lundi au vendredi : 08:45-11:45 et 13:30-15:45,"Mo-Fr 08:45-11:45,13:30-15:45",Tout public,,,,,,
Point d'accueil numérique - Sous-Préfecture de Lens,,,,,Groupement d'intérêt public (GIP),,25 rue du 11 novembre 62307 Lens,25,Rue du 11 Novembre,62300,62498,Lens,Pas-de-Calais,Hauts-de-France,50.431768,2.824627,,Non,,,,http://www.pas-de-calais.gouv.fr/Actualites/Actualites/Les-points-d-accueil-numerique-a-la-prefecture-et-dans-les-sous-prefectures,,Du lundi au vendredi : 08:30-11:45 et 13:30-16:30,"Mo-Fr 08:30-11:45,13:30-16:30",Tout public,,,,,,
Point d'accueil numérique - Sous-Préfecture de Montreuil-sur-Mer,,,,,Groupement d'intérêt public (GIP),,7-9-11 rue d'Hérambault 62170 Montreuil-sur-Mer,11,Rue d'Hérambault,62170,62588,Montreuil,Pas-de-Calais,Hauts-de-France,50.4633,1.761533,,Non,,,,http://www.pas-de-calais.gouv.fr/Actualites/Actualites/Les-points-d-accueil-numerique-a-la-prefecture-et-dans-les-sous-prefectures,,Du lundi au vendredi : 09:00-12:30 et 13:30-16:00,"Mo-Fr 09:00-12:30,13:30-16:00",Tout public,,,,,,
Point d'accueil numérique - Sous-Préfecture de Saint-Omer,,,,,Groupement d'intérêt public (GIP),,41 rue Saint Bertin 62504 Saint-Omer,41,Rue Saint Bertin,62500,62765,Saint-Omer,Pas-de-Calais,Hauts-de-France,50.748906,2.257917,,Non,,,,http://www.pas-de-calais.gouv.fr/Actualites/Actualites/Les-points-d-accueil-numerique-a-la-prefecture-et-dans-les-sous-prefectures,,Du lundi au vendredi : 09:00-12:00 et 14:00-16:00,"Mo-Fr 09:00-12:00,14:00-16:00",Tout public,,,,,,
"Ville de Fourmies/Le L@bo, coeur numérique",,,,,Groupement d'intérêt public (GIP),,Parking du Théâtre Jean Ferrat 59610 Fourmies,,Rue Jean-pierre Dupont,59610,59249,Fourmies,Nord,Hauts-de-France,50.015951,4.043938,,Non,0967160481,,le-labo@fourmies.fr,http://le-labo.fourmies.fr/,,Mardi : 09:30-22:00 / Du mercredi au samedi : 09:30-18:00,Tu 09:30-22:00; We-Sa 09:30-18:00,Tout public,,,,,,
Communauté d'Agglomération Maubeuge - Val de Sambre /Fablab de la Gare numérique,,,,,Groupement d'intérêt public (GIP),,Place de la Gare 59460 Jeumont,,Place de la Gare,59460,59324,Jeumont,Nord,Hauts-de-France,50.295887,4.087829,,Non,0327601639,,,http://www.mairie-jeumont.fr/site/2015/10/28/fablab/,,Lundi : 08:30-12:15 et 13:30-16:15 / Du mardi au vendredi : 08:30-12:15 et 13:30-17:00 / Samedi : 09:00-12:00,"Mo 08:30-12:15,13:30-16:15; Tu-Fr 08:30-12:15,13:30-17:00; Sa 09:00-12:00",Tout public,,,,,,
Association Médico Sociale Anne Morgan (ANSAM),,,Association,,,,31 rue Anne Morgan 02200 Soissons,31,Rue Anne Morgan,02200,02722,Soissons,Aisne,Hauts-de-France,49.372777,3.320963,,Non,0323755100,,contact@amsam.net,http://amsam.net/,,,,"Personnes en situation de handicap,Séniors",,,,,,
Humanis / Ville de Roubaix,,,Association,,,,13 Rue Pierre Motte 59170 Roubaix,13,Rue Pierre Motte,59100,59512,Roubaix,Nord,Hauts-de-France,50.690999,3.176202,,Non,0685324733,,guillaume.alsac.ext@humanis.com,https://reseau-confiance-roubaix.humanis.com/fr/login,,Du mardi au vendredi : 09:00-18:00 / Samedi : 09:30-12:30,Tu-Fr 09:00-18:00; Sa 09:30-12:30,"Personnes en situation de handicap,Séniors",,,,,,
Centre Social La Busette,,,"Commune (Ville, CCAS, Centre Culturel...)",,,,1 Rue Georges Lefebvre 59000 Lille,1,Impasse Lefebvre,59000,59350,Lille,Nord,Hauts-de-France,50.625385,3.110329,,Non,0320490253,,cs.cyberbusette@gmail.com,https://cslabusette.wordpress.com/,,voir site internet,,,,,,,,
Maison de Quartier les Moulins,,,Maison de quartier,,,,1 rue Armand Carrel 59000 Lille,1,Rue Armand Carrel,59000,59350,Lille,Nord,Hauts-de-France,50.617921,3.07383,,Non,0320534505,,cybermdqmoulins@orange.fr,http://www.maisondequartierlesmoulins.fr/,,Lundi : 09:30-12:00,Mo 09:30-12:00,Tout public,,,,,,
Centre Social d'Ostricourt,,,"Commune (Ville, CCAS, Centre Culturel...)",,,,251 Avenue du Maréchal Leclerc 59162 Ostricourt,251,Avenue du Maréchal Leclerc,59162,59452,Ostricourt,Nord,Hauts-de-France,50.458128,3.029584,,Non,0327898112,,,http://centresocialostricourt.e-monsite.com/,,Lundi : 10:00-12:00,Mo 10:00-12:00,Allocataires,,,,,,
Centre Social du Centre Ville,,,"Commune (Ville, CCAS, Centre Culturel...)",,,,9 Quai Saint-Lazare 59400 Cambrai,9,Quai Saint Lazare,59400,59122,Cambrai,Nord,Hauts-de-France,50.180316,3.229806,,Non,0327700202,,,http://www.centresocialcambrai.fr/CSCV/,,Du lundi au vendredi : 09:00-12:00 et 14:00-17:00,"Mo-Fr 09:00-12:00,14:00-17:00",Tout public,,,,,,
Centre Socio-Culturel de Denain,,,"Commune (Ville, CCAS, Centre Culturel...)",,,,"Maison de Quartier Fernand Duchateau, 59 rue Patrick Roy 59220 Denain",59,Rue Patrick Roy,59220,59172,Denain,Nord,Hauts-de-France,50.318182,3.402881,,Non,0327321321,,,,,Vendredi : 14:00-16:00,Fr 14:00-16:00,,,,,,,
Centre Socio-Culturel Agora,,,"Commune (Ville, CCAS, Centre Culturel...)",,,,18 avenue Julien Renard 59282 Douchy les Mines,18,Avenue Julien Renard,59282,59179,Douchy-les-Mines,Nord,Hauts-de-France,50.300207,3.392259,,Non,0327440542,,csagora@acsrv.org,,,Du lundi au vendredi : 09:00-12:00 et 13:30-17:30,"Mo-Fr 09:00-12:00,13:30-17:30",Tout public,,,,,,
Maison de Quartier Sabatier,,,Maison de quartier,,,,78D rue de Thiers 59590 Raismes,78 d,Rue Thiers,59590,59491,Raismes,Nord,Hauts-de-France,50.406488,3.518042,,Non,0327514380,,sabatier.amqr@gmail.com,https://www.quartiersderaismes.fr/index.php/sabatier,,Mardi : 14:00-16:00,Tu 14:00-16:00,,,,,,,
Centre Social Rural de Lamorlaye,,,"Commune (Ville, CCAS, Centre Culturel...)",,,,87 avenue de la Libération 60260 Lamorlaye,87,Avenue de la Libération,60260,60346,Lamorlaye,Oise,Hauts-de-France,49.157087,2.445809,,Non,0344216161,,,http://www.centre-social-rural-lamorlaye.org/,,Du lundi au vendredi : 07:00-19:30,Mo-Fr 07:00-19:30,,,,,,,
Maison de Services Au Public d'Hondshoote,,,Maison de Service au Public (MSAP),,Groupement d'intérêt public (GIP),,1 rue de Cassel 59122 Hondschoote,1,Rue de Cassel,59122,59309,Hondschoote,Nord,Hauts-de-France,50.978506,2.579816,,Non,0359734180,,Christophe.ryckebush@lenord.fr,https://www.maisondeservicesaupublic.fr/content/hondschoote,,Du lundi au jeudi : 09:00-12:00 et 14:00-17:00 / Vendredi : 09:00-12:00 et 13:00-16:00,"Mo-Th 09:00-12:00,14:00-17:00; Fr 09:00-12:00,13:00-16:00",Tout public,,,,,,
Maison de Services Au Public de Saint-Erme,,,Maison de Service au Public (MSAP),,Groupement d'intérêt public (GIP),,2 bis route de Montaigu 02820 Saint Erme,,Rue de Saint-erme,02820,02498,Montaigu,Aisne,Hauts-de-France,49.535162,3.832202,,Non,0323223190,,Faitout@cc-champagnepicarde.fr,www.faitoutconnecte.com,,"Lundi 09:00-12:00 et 13:30-18:30 / Mardi, mercredi, jeudi : 09:00-12:00 et 13:30-17:30 / Vendredi : 09:00-12:00 et 13:00-17:00","Mo 09:00-12:00,13:30-18:30; Tu, We, Th 09:00-12:00,13:30-17:30; Fr 09:00-12:00,13:00-17:00",Tout public,,,,,,
Maison de Services Au Public de Cassel,,,Maison de Service au Public (MSAP),,,,16 rue de Bergues 59670 Cassel,16,Rue de Bergues,59670,59135,Cassel,Nord,Hauts-de-France,50.800261,2.487424,,Non,,,msap.cassel@laposte.fr,https://www.maisondeservicesaupublic.fr/content/cassel-bureau-de-poste,,Du lundi au vendredi : 09:00-12:00 et 13:30-16:30 / Samedi : 09:00-12:00,"Mo-Fr 09:00-12:00,13:30-16:30; Sa 09:00-12:00",Tout public,,,,,,
Maison de Services Au Public de Crécy-en-Ponthieu,,,Maison de Service au Public (MSAP),,,,Place Jean de Luxembourg 80150 Crécy-en-Ponthieu,,Place Jean de Luxembourg,80150,80222,Crécy-en-Ponthieu,Somme,Hauts-de-France,50.25231,1.882188,,Non,0322318416,,nathalie.wolmer@ponthieu-marquenterre.fr,https://www.maisondeservicesaupublic.fr/content/crecy-en-ponthieu-et-rue-point-accueil-multiservices,,Du lundi au vendredi : 08:30-12:00,Mo-Fr 08:30-12:00,Tout public,,,,,,
Communauté de Communes Sud-Artois/Espace numérique Achiet-le-Grand,,,,,Groupement d'intérêt public (GIP),,19 Rue de la Mairie 62121 Achiet-le-Grand,19,Rue de la Mairie,62121,62005,Achiet-le-Grand,Pas-de-Calais,Hauts-de-France,50.132353,2.785223,,Non,,,,http://www.cc-sudartois.fr/,,Ateliers sur réservation et accès libre,,"Tout public,Demandeurs d'emploi,Jeunes",,,,,,
Communauté de Communes Sud-Artois/Espace numérique Bapaume,,,,,Groupement d'intérêt public (GIP),,1 chemin des Anzacs 62450 Bapaume,1,Chemin des Anzacs,62450,62080,Bapaume,Pas-de-Calais,Hauts-de-France,50.104736,2.862564,,Non,,,,http://www.cc-sudartois.fr/,,Ateliers sur réservation et accès libre,,"Tout public,Demandeurs d'emploi,Jeunes",,,,,,
Communauté de Communes Sud-Artois/Espace numérique Bertincourt,,,,,Groupement d'intérêt public (GIP),,Chemin du Petit Prince 62124 Bertincourt,,Le Petit Chemin de Bapaume,62124,62117,Bertincourt,Pas-de-Calais,Hauts-de-France,50.088797,2.987246,,Non,,,,http://www.cc-sudartois.fr/,,Ateliers sur réservation et accès libre,,"Tout public,Demandeurs d'emploi,Jeunes",,,,,,
Communauté de Communes Sud-Artois/Espace numérique Bucquoy,,,,,Groupement d'intérêt public (GIP),,17 Rue Dierville 62116 Bucquoy,17,Rue Dierville,62116,62181,Bucquoy,Pas-de-Calais,Hauts-de-France,50.139986,2.7095,,Non,,,,http://www.cc-sudartois.fr/,,Ateliers sur réservation et accès libre,,"Tout public,Demandeurs d'emploi,Jeunes",,,,,,
Communauté de Communes Sud-Artois/Espace numérique Croisilles,,,,,Groupement d'intérêt public (GIP),,7 rue de Saint-Léger 62128 Croisilles,7,Rue de Saint-léger,62128,62259,Croisilles,Pas-de-Calais,Hauts-de-France,50.198836,2.877903,,Non,,,,http://www.cc-sudartois.fr/,,Ateliers sur réservation et accès libre,,"Tout public,Demandeurs d'emploi,Jeunes",,,,,,
Communauté de Communes Sud-Artois/Espace numérique Vaulx-Vraucourt,,,,,Groupement d'intérêt public (GIP),,1 Rue de Lagincourt 62159 Vaulx-Vraucourt,1,Rue de Lagnicourt,62159,62839,Vaulx-Vraucourt,Pas-de-Calais,Hauts-de-France,50.1485,2.912235,,Non,,,,http://www.cc-sudartois.fr/,,Ateliers sur réservation et accès libre,,"Tout public,Demandeurs d'emploi,Jeunes",,,,,,
Communauté de Communes Sud-Artois/Espace numérique Achiet-le-Grand,,,,,Groupement d'intérêt public (GIP),,5 rue Neuve 62450 Bapaume,5,Rue Neuve,62450,62080,Bapaume,Pas-de-Calais,Hauts-de-France,50.105108,2.850054,,Non,0321591717,,,,,,,Tout public,,,,,,
Département de l'Oise,,,,,Groupement d'intérêt public (GIP),,1 Rue Cambry 60000 Beauvais,1,Rue de Cambry,60000,60057,Beauvais,Oise,Hauts-de-France,49.440025,2.070872,,Non,0671922746,,,http://www.oise.fr,,,,Demandeurs d'emploi,,,,,,
Club POM Informatique,,,Association,,,,1 rue Théophile Gautier 02100 Saint-Quentin,1,Rue Théophile Gautier,02100,02691,Saint-Quentin,Aisne,Hauts-de-France,49.85255,3.280961,,Non,0323086103,,jeanluc.lebuzullier@orange.fr,http://clubpom.free.fr/,,Lundi : 17:00-19:00,Mo 17:00-19:00,,,,,,,
Centre Social de Bailleul,,,"Commune (Ville, CCAS, Centre Culturel...)",,Groupement d'intérêt public (GIP),,Rue Paul Perrier 59270 Bailleul,,Rue Paul Perrier,59270,59043,Bailleul,Nord,Hauts-de-France,50.73788,2.738748,,Non,0328422580,,,,,Lundi : 09:30-11:30,Mo 09:30-11:30,,,,,,,
Pause-Café Solidaire (en partenariat avec la Médiathèque du Vieux Lille),,,,,,,25/27 place de Louise de Bettignies 59000 Lille,27,Place Louise de Bettignies,59800,59350,Lille,Nord,Hauts-de-France,50.640928,3.064615,,Non,,,pause-cafe.solidaire@voila.fr,,,Mardi : 14:00-16:00,Tu 14:00-16:00,Tout public,,,,,,
CAF Somme,,,"Organisme de sécurité sociale (CAF, CPAM, CARSAT, MSA...)",,,,2 Rue Emile Zola 80300 Albert,2,Rue Emile Zola,80300,80016,Albert,Somme,Hauts-de-France,50.004626,2.645349,,Non,0810258010,,,http://www.caf.fr,,,,Allocataires,,,,,,
CAF Somme,,,"Organisme de sécurité sociale (CAF, CPAM, CARSAT, MSA...)",,,,Quai Du Pont Neuf 80100 Abbeville,,Quai du Pont Neuf,80100,80001,Abbeville,Somme,Hauts-de-France,50.106251,1.828184,,Non,0810258010,,,http://www.caf.fr,,,,Allocataires,,,,,,
AFAD du Douaisis,,,Association,,,,386 Rue d'Arras 59501 Douai,,Rue d'Arras,59500,59178,Douai,Nord,Hauts-de-France,50.36923,3.073837,,Non,,,afad.douaisis@orange.fr,https://sites.google.com/site/afaddouaisis/,,,,Allocataires,,,,,,
Perspectives,,,Association,,,,"18 Boulevard de Metz, Entrée 18 Porte 2 59000 Lille",,Boulevard de Metz,59000,59350,Lille,Nord,Hauts-de-France,50.620756,3.035493,,Non,0320447981,,Cyberperspectives59@gmail.com,,,Du lundi au vendredi : 09:00-12:00 et 14:00-18:00,"Mo-Fr 09:00-12:00,14:00-18:00",,,,,,,
MSAP de Rue,,,Maison de Service au Public (MSAP),,Groupement d'intérêt public (GIP),,33 bis route du Crotoy BP 40038 80120 RUE,,Route du Crotoy,80120,80688,Rue,Somme,Hauts-de-France,50.26868,1.666489,,Non,0322318416,,msap@ponthieu-marquenterre.fr,,,du lundi au vendredi 8h30 - 12h00 / 14h00 - 17h30,Mo-Fr 08:30-12:00; 14:00-17:30,,,,,,,
Centre National de la Fonction Publique Territoriale (CNFPT),,,Organisme de formations,,Groupement d'intérêt public (GIP),,15 rue de Bavay 59800 Lille,15,Rue de Bavay,59000,59350,Lille,Nord,Hauts-de-France,50.626384,3.081784,,Non,0320156969,,serge.valentin@cnfpt.fr,http://www.cnfpt.fr/trouver-formation/detail/h-5ub6-P-1d7f43g-1e9vt7g,,,,,,,,,,
Maison de quartier Faubourg de Béthune,,,Maison de quartier,,,,"65, rue Saint-Bernard 59000 Lille",65,Rue Saint Bernard,59000,59350,Lille,Nord,Hauts-de-France,50.61954,3.043337,,Non,0320546080,,cyberespace@association-projet.org,http://www.association-projet.org/activites/secteurs/adultes-famille-seniors.html,,Horaires variables. Voir le programme.,,,,,,,,
QuentinWeb,,,Association,,Groupement d'intérêt public (GIP),,53 rue Henri Dunant 02107 Saint-Quentin,53,Rue Henri Dunant,02100,02691,Saint-Quentin,Aisne,Hauts-de-France,49.855163,3.307451,,Non,0323063220,,centre.multi@saint-quentin.fr,http://quentinweb.fr/,,Du lundi au vendredi : 13:00-19:00,Mo-Fr 13:00-19:00,,,,,,,
Centre social Albert Jacquard,,,"Commune (Ville, CCAS, Centre Culturel...)",,Groupement d'intérêt public (GIP),,"113-115, rue Saint Gabriel 59000 Lille",,Rue Saint Gabriel,59800,59350,Lille,Nord,Hauts-de-France,50.637482,3.086762,,Non,0320519047,,cs.jacquard59@gmail.com,http://www.centresocialsmp.fr/index.php?page=adultes,,Horaires variables. Voir le programme.,,,,,,,,
Maison de quartier Bois Blanc,,,Maison de quartier,,Groupement d'intérêt public (GIP),,"4, rue Guillaume Tell 59000 Lille",4,Rue Guillaume Tell (Lille),59000,59350,Lille,Nord,Hauts-de-France,50.632331,3.027761,,Non,0320097594,,contact@mbqq.fr,http://mqbb.org/cyber-espaces/,,Horaires variables. Voir le programme.,,,,,,,,
Euratechnologies,,,Association,,Groupement d'intérêt public (GIP),,"Bâtiment Le Blan Lafont, 165, avenue de Bretagne 59000 Lille",,Avenue de Bretagne,59000,59350,Lille,Nord,Hauts-de-France,50.635954,3.026907,,Non,0320099315,,cyber@euratechnologies.com,https://www.euratechnologies.com/club-coding-cyberespace-euratechnologies-9944/,,Horaires variables. Voir le programme.,,,,,,,,
Centre social et culturel Lazare-Garreau,,,"Commune (Ville, CCAS, Centre Culturel...)",,Groupement d'intérêt public (GIP),,"45, rue Lazare Garreau 59000 Lille",45,Rue Lazarre Garreau,59000,59350,Lille,Nord,Hauts-de-France,50.612021,3.055082,,Non,0328553820,,contact@cslg.org,,,Horaires variables. Voir le programme.,,,,,,,,
Centre social Mosaïque,,,"Commune (Ville, CCAS, Centre Culturel...)",,Groupement d'intérêt public (GIP),,"30, rue Cabanis 59000 Lille",,Voie (2-12) R.cabanis 18 R.rivoli,59000,59350,Lille,Nord,Hauts-de-France,50.635042,3.09367,,Non,0320567261,,cs.mosaique59@gmail.com,http://www.mosaique-lillefives.fr/index.php?page=cyber-base,,Horaires variables. Voir le programme.,,,,,,,,
Centre social et culturel de l'Arbrisseau,,,"Commune (Ville, CCAS, Centre Culturel...)",,Groupement d'intérêt public (GIP),,"149, rue du Vaisseau le Vengeur 59000 Lille",,Rue du Vaisseau le Vengeur,59000,59350,Lille,Nord,Hauts-de-France,50.602425,3.054873,,Non,0320168430,,contact@larbrisseau.com,,,Horaires variables. Voir le programme.,,,,,,,,
Graines de Pays/RPA La Clé des champs,,,Association,,,,51 rue Arnaud Buisson 60000 Beauvais,51,Rue Arnaud Bisson,60000,60057,Beauvais,Oise,Hauts-de-France,49.419905,2.074561,,Non,0623460364,,grainesdepays@outlook.fr,,,Vendredi : 10:00-12:00,Fr 10:00-12:00,,,,,,,
Graines de Pays/RPA Résid'Oise,,,Association,,,,1 avenue de la République 60000 Beauvais,1,Avenue de la République,60000,60057,Beauvais,Oise,Hauts-de-France,49.427217,2.084597,,Non,0623460364,,grainesdepays@outlook.fr,,,Vendredi : 14:00-17:00,Fr 14:00-17:00,,,,,,,
Graines de Pays/RPA Résid'Oise,,,Association,,,,Avenue de la République 60930 Bailleul-sur-Thérain,,Avenue de l'Europe,60930,60041,Bailleul-sur-Thérain,Oise,Hauts-de-France,49.383402,2.229491,,Non,0623460364,,grainesdepays@outlook.fr,,,Mercredi : 10:00-12:00,We 10:00-12:00,,,,,,,
Graines de Pays/RPA Résid'Oise,,,Association,,,,19 rue Grésilmont 60290 Cauffry,19,Rue de Grésilmont,60290,60134,Cauffry,Oise,Hauts-de-France,49.320763,2.444787,,Non,0623460364,,grainesdepays@outlook.fr,,,Mercredi : 14:00-17:00,We 14:00-17:00,,,,,,,
Graines de Pays/Maison de retraite Sarlovèze,,,Association,,,,21 rue de la Justice 60200 Compiègne,21,Rue de la Justice,60200,60159,Compiègne,Oise,Hauts-de-France,49.409426,2.822209,,Non,0623460364,,grainesdepays@outlook.fr,,,Lundi : 14:00-16:30,Mo 14:00-16:30,,,,,,,
Graines de Pays/RPA La tenure,,,Association,,,,21 rue de la tenure 60260 Lamorlaye,,Rue de la Tenure,60260,60346,Lamorlaye,Oise,Hauts-de-France,49.154675,2.439285,,Non,0623460364,,grainesdepays@outlook.fr,,,Mardi : 14:00-17:00,Tu 14:00-17:00,,,,,,,
Graines de Pays/Centre Social Rural Froissy-Crèvecoeur,,,Association,,,,Route de Crèvecoeur 60480 Froissy,,Rue de Crèvecoeur,60480,60265,Froissy,Oise,Hauts-de-France,49.567441,2.22175,,Non,0623460364,,grainesdepays@outlook.fr,,,Jeudi : 9:30-11:30 et 14:00-16:00,"Th 09:30-11:30,14:00-16:00",,,,,,,
Graines de Pays/RPA Age d'or,,,Association,,,,1 rue de la Paix 60700 Pont Sainte Maxence,1,Rue de la Paix,60700,60509,Pont-Sainte-Maxence,Oise,Hauts-de-France,49.307767,2.602969,,Non,0623460364,,grainesdepays@outlook.fr,,,Lundi : 14:00-16:30,Mo 14:00-16:30,,,,,,,
Graines de Pays/RPA,,,Association,,,,7 rue des jardins 60250 Mouy,7,Rue des Jardins,60250,60439,Mouy,Oise,Hauts-de-France,49.317918,2.322685,,Non,0623460364,,grainesdepays@outlook.fr,,,Lundi : 14:00-17:00,Mo 14:00-17:00,,,,,,,
Centre Socioculturel Les Portes du Valois,,,"Commune (Ville, CCAS, Centre Culturel...)",,,,60950 Ver sur Launette,,Ver-sur-Launette,60950,60666,Ver-sur-Launette,Oise,Hauts-de-France,49.108152,2.661822,,Non,0344883790,,csrnanteuil@wanadoo.fr,http://www.csr-nanteuil.sitew.com/#Actualites.D,,1er mardi du mois : 09:30-11:00,,Tout public,,,,,,
Centre Socioculturel Les Portes du Valois,,,"Commune (Ville, CCAS, Centre Culturel...)",,,,60300 Baron,,Baron,60300,60047,Baron,Oise,Hauts-de-France,49.179765,2.733728,,Non,0344883790,,accueil@cspv.fr,http://www.cspv.fr,,2e mardi du mois : 09:00-11:00,,Tout public,,,,,,
Centre Socioculturel Les Portes du Valois,,,"Commune (Ville, CCAS, Centre Culturel...)",,,,60440 Péroy-les-Gombries,,Péroy-les-Gombries,60440,60489,Péroy-les-Gombries,Oise,Hauts-de-France,49.165904,2.842816,,Non,0344883790,,csrnanteuil@wanadoo.fr,http://www.csr-nanteuil.sitew.com/#Actualites.D,,3e mardi du mois : 09:00-11:00,,Tout public,,,,,,
Centre Social et Culturel de Lassigny,,,"Commune (Ville, CCAS, Centre Culturel...)",,,,12 rue Saint-Crépin 60310 Lassigny,12,Rue de Saint Crepin,60310,60350,Lassigny,Oise,Hauts-de-France,49.587423,2.841698,,Non,0344435160,,,http://lassigny-centre-social.over-blog.com/,,Du lundi au vendredi : 09:30-12:30 et 14:00-18:00,"Mo-Fr 09:30-12:30,14:00-18:00",,,,,,,
Point Relais CAF - MJC Centre Social Crépy-en-Valois,,,"Commune (Ville, CCAS, Centre Culturel...)",,Groupement d'intérêt public (GIP),,11 rue Claude Debussy 60800 Crépy-en-Valois,11,Rue Claude Debussy,60800,60176,Crépy-en-Valois,Oise,Hauts-de-France,49.2258,2.885383,,Non,0344876462,,mjc-le-onze@9business.fr,http://www.mjc-crepyenvalois.com/mjc-social,,Mardi et mercredi : 09-12:30 et 13:30-19:00,"Tu, We 09:00-12:30,13:30-19:00",Tout public,,,,,,
Point Relais CAF - Espace Valois Multien,,,"Organisme de sécurité sociale (CAF, CPAM, CARSAT, MSA...)",,Groupement d'intérêt public (GIP),,1 rue de la Fraternité 60620 Betz,1,Rue de la Fraternite,60620,60069,Betz,Oise,Hauts-de-France,49.159855,2.95234,,Non,0344874459,,csrbetz@wanadoo.fr,http://csr-betz.fr/,,Lundi : 13:30-17:00 / Mardi et jeudi : 08:30-11:30 et 13:30-17:00 / Mercredi : 08:30-11:30 / Vendredi : 08:30-11:30 et 13:30-16 :00 / 2e et 4e samedi du mois : 10:00-12:00,,Tout public,,,,,,
Point Relais CAF - Centre Social Rural de Marseille-en-Beauvaisis,,,"Commune (Ville, CCAS, Centre Culturel...)",,Groupement d'intérêt public (GIP),,Rue Ferdinand Buisson 60690 Marseille-en-Beauvaisis,,Rue Ferdinand Buisson,60690,60387,Marseille-en-Beauvaisis,Oise,Hauts-de-France,49.57627,1.95515,,Non,0344462622,,socrural@wanadoo.fr,,,Mardi : 13:30-17:30 /Jeudi : 08:30-12:30,,Tout public,,,,,,
Association PEP'80,,,Association,,,,256 rue Saint-Honoré 80888 Amiens,256,Rue Saint-honoré,80000,80021,Amiens,Somme,Hauts-de-France,49.884491,2.283418,,Non,0322717890,,animation.séniors@pep80.fr,http://www.pep80.fr/activite-animation/actions-prevention-séniors/,,"Les stages se déroulent dans diverses communes du territoire de l'ancienne région Picardie, au plus proche des habitants. Contactez l'Association pour obtenir plus de renseignements",,,,,,,,
Association Inter'Ages,,,Association,,,,97 rue Saint-Sauveur 59000 Lille,97,Rue Saint Sauveur,59800,59350,Lille,Nord,Hauts-de-France,50.631072,3.07211,,Non,0689883046,,alain-chantal@cznt.fr,https://www.interageslille.org/,,Horaires variables. Contacter l'Association,,,,,,,,
Maison de Services Au Public du Pays d'Opale à Guînes,,,Maison de Service au Public (MSAP),,Groupement d'intérêt public (GIP),,9 avenue de la Libération 62340 Guînes,9,Avenue de la Libération,62340,62397,Guînes,Pas-de-Calais,Hauts-de-France,50.86622,1.860873,,Non,0962024927,,msap@cc-paysdopale.fr,https://www.maisondeservicesaupublic.fr/content/maison-de-services-au-public-pays-dopale-guines,,Du lundi au vendredi : 08:00-12:00 et 13:30-17:00,"Mo-Fr 08:00-12:00,13:30-17:00",Tout public,,,,,,
Maison de Services Au Public du Pays d'Opale à Ardres,,,Maison de Service au Public (MSAP),,Groupement d'intérêt public (GIP),,15 place de Tassencourt 62610 Ardres,15,Place de Tassencourt,62610,62038,Ardres,Pas-de-Calais,Hauts-de-France,50.853495,1.978313,,Non,0321351746,,msap@cc-paysdopale.fr,https://www.maisondeservicesaupublic.fr/content/maison-de-services-au-public-pays-dopale-ardres,,Du lundi au jeudi : 09:00-12:00 et 14:00-17:00 / Vendredi : 09:00-12:00,"Mo-Th 09:00-12:00,14:00-17:00; Fr 09:00-12:00",Tout public,,,,,,
Maison de Services Au Public de Guignicourt,,,Maison de Service au Public (MSAP),,Groupement d'intérêt public (GIP),,4 avenue du général De Gaulle 02190 GUIGNICOURT VILLENEUVE SUR AISNE,4,Avenue du Général de Gaulle,02190,02360,Villeneuve-sur-Aisne,Aisne,Hauts-de-France,49.434516,3.966172,,Non,0323253680,,rsp-sud@cc-champagnepicarde.fr,http://www.cc-champagnepicarde.fr,,lundi au mardi 9h 12h30 / 13h30 17h30 mercredi 9h 12h30 jeudi et vendredi 9h 12h30 et 14h à 16h,,,,,,,,
Mairie de Guiscard,,,,,Groupement d'intérêt public (GIP),,127 rue du Général Leclerc 60640 Guiscard,127,Rue du Général Leclerc,60640,60291,Guiscard,Oise,Hauts-de-France,49.657215,3.052334,,Non,0344432011,,com.guiscard@orange.fr,http://www.mairieguiscard.fr/,,Du lundi au vendredi : 9:00-12:00 et 14:00-17:00,"Mo-Fr 09:00-12:00,14:00-17:00",,,,,,,
Communauté de Communes Champagne-Picarde,,,,,Groupement d'intérêt public (GIP),,7 rue du Général de Gaulle 02350 Liesse-Notre-Dame,7,Rue du General de Gaulle,02350,02430,Liesse-Notre-Dame,Aisne,Hauts-de-France,49.610355,3.803288,,Non,0631662410,,ntic-nord@cc-champagnepicarde.fr,http://www.cc-champagnepicarde.fr/,,Du mardi au jeudi : 17:00-18:00,Tu-Th 17:00-18:00,Tout public,,,,,,
Communauté de Communes Champagne-Picarde,,,,,Groupement d'intérêt public (GIP),,2 route de Montaigu 02820 Saint-Erme,2,Route de Montaigu,02820,02676,Saint-Erme-Outre-et-Ramecourt,Aisne,Hauts-de-France,49.528856,3.854982,,Non,0631662410,,ntic-nord@cc-champagnepicarde.fr,http://www.cc-champagnepicarde.fr/,,Du lundi au jeudi : 08:45-12:00 et 13:00-17:00 / Vendredi : 09:00-12:00 et 13:00-16:00,"Mo-Th 08:45-12:00,13:00-17:00; Fr 09:00-12:00,13:00-16:00",Tout public,,,,,,
Centre Social MJC Crépy-en-Valois,,,"Commune (Ville, CCAS, Centre Culturel...)",,,,Place Jean-Philippe Rameau 60800 Crépy-en-Valois,,Place Jean Philippe Rameau,60800,60176,Crépy-en-Valois,Oise,Hauts-de-France,49.226285,2.882288,,Non,0344871313,,mjcrameau@free.fr,http://www.mjc-crepyenvalois.com/mjc-social,,Contacter le Centre Social pour obtenir les horaires des permanences,,Tout public,,,,,,
Centre Social et Culturel Jacques-Yves Cousteau,,,"Commune (Ville, CCAS, Centre Culturel...)",,,,181 allée de la Découvert 62730 Marck,181,Allee de la Decouverte,62730,62548,Marck,Pas-de-Calais,Hauts-de-France,50.956757,1.927635,,Non,0321007200,,accueil.csc@gmail.com,http://marck62cousteau.centres-sociaux.fr/?page_id=5601,,"Lundi, mardi : 14:00-17:30 / Jeudi : 09:00-12:00 et 14:00-17:30","Mo, Tu 14:00-17:30; Th 09:00-12:00,14:00-17:30",Tout public,,,,,,
Union Nationale des Aveugles et Déficients Visuels (UNADEV),,,Association,,,,15 place aux Bleuets 59000 Lille,15,Place aux Bleuets,59800,59350,Lille,Nord,Hauts-de-France,50.641464,3.067811,,Non,0320452813,,nord@unadev.com,http://www.unadev.com/centreregion/centre-unadev-hauts-de-france/,,Du lundi au vendredi : 09:00–12:00 et 13:00–17:00,"Mo-Fr 09:00-12:00,13:00-17:00",,,,,,,
Point Relais CAF - Ville de Thourotte,,,,,Groupement d'intérêt public (GIP),,Rue du Général Koening 60150 Thourotte,,Rue du General Koenig,60150,60636,Thourotte,Oise,Hauts-de-France,49.478072,2.879183,,Non,0344906890,,,http://thourotte.fr,,Mardi : 14:00-16:00,Tu 14:00-16:00,Tout public,,,,,,
Maison de Services au Public de Rozoy-sur-Serre,,,Maison de Service au Public (MSAP),,,,140 place de l’Europe 02360 Rozoy-sur-Serre,140,Place de l'Europe,02360,02666,Rozoy-sur-Serre,Aisne,Hauts-de-France,49.709584,4.129307,,Non,0323985059,,msap.rozoy-sur-serre@laposte.fr,https://www.maisondeservicesaupublic.fr/content/rozoy-sur-serre-bureau-de-poste,,Du lundi au vendredi : 09:00-12:00 et 14:00-17:00 / Samedi 08:30-12:15,"Mo-Fr 09:00-12:00,14:00-17:00; Sa 08:30-12:15",Tout public,,,,,,
Maison de Services au Public de Sains-Richaumont,,,Maison de Service au Public (MSAP),,,,11 place des Prelets 02120 Sains-Richaumont,11,Place des Prelets,02120,02668,Sains-Richaumont,Aisne,Hauts-de-France,49.824475,3.711354,,Non,,,msap.sains-richaumont@laposte.fr,https://www.maisondeservicesaupublic.fr/content/sains-richaumont-bureau-de-poste,,"Lundi : 10:00-12:15 et 13:30-16:15 / Mardi, jeudi et vendredi : 09:00-12:00 et 13:30-16:15 / Mercredi : 08:30-12:00 / Samedi : 09:00-12:00","Mo 10:00-12:15,13:30-16:15; Tu, Th, Fr 09:00-12:00,13:30-16:15; We 08:30-12:00; Sa 09:00-12:00",Tout public,,,,,,
Maison de Services au Public Le-Nouvion-en-Thiérache,,,Maison de Service au Public (MSAP),,Groupement d'intérêt public (GIP),,25 rue Théodore Blot 02170 Le-Nouvion-en-Thiérache,25,Rue Théodore Blot,02170,02558,Le Nouvion-en-Thiérache,Aisne,Hauts-de-France,50.016887,3.787362,,Non,0323975390,,ccas-lenouvion@wanadoo.fr,https://www.maisondeservicesaupublic.fr/content/le-nouvion-en-thierache,,Du lundi au vendredi : 08:45-12:00 et 13:30-18:00,"Mo-Fr 08:45-12:00,13:30-18:00",Tout public,,,,,,
Maison de Services au Public de Neuilly-Saint-Front,,,Maison de Service au Public (MSAP),,,,7 rue du Château 02470 Neuilly-Saint-Front,7,Rue du Château,02470,02543,Neuilly-Saint-Front,Aisne,Hauts-de-France,49.171009,3.260688,,Non,,,msap.neuilly-st-front@laposte.fr,https://www.maisondeservicesaupublic.fr/content/neuilly-saint-front-bureau-de-poste,,Lundi : 13:15-16:00 / Du mardi au vendredi : 09:00-12:15 et 13:15-16:00 / Samedi : 09:00-12:00,"Mo 13:15-16:00; Tu-Fr 09:00-12:15,13:15-16:00; Sa 09:00-12:00",Tout public,,,,,,
Maison de Services au Public de Moÿ-de-l’Aisne,,,Maison de Service au Public (MSAP),,,,12 rue Bernard Testart 02610 Moÿ-de-l’Aisne,12,Rue Bernard Testart,02610,02532,Moÿ-de-l'Aisne,Aisne,Hauts-de-France,49.750169,3.36469,,Non,,,msap.moy-de-l-aisne@laposte.fr,https://www.maisondeservicesaupublic.fr/content/moy-de-laisne-bureau-de-poste,,"Lundi, mardi, mercredi et vendredi : 09:00-12:00 et 14:00-16:15 / Jeudi et samedi : 09:00-12:00","Mo, Tu, We, Fr 09:00-12:00,14:00-16:15; Th, Sa 09:00-12:00",Tout public,,,,,,
Maison de Services au Public de Crécy-sur-Serre,,,Maison de Service au Public (MSAP),,,,1 rue des Telliers 02770 Crécy-sur-Serre,1,Rue des Telliers,02270,02237,Crécy-sur-Serre,Aisne,Hauts-de-France,49.69604,3.624244,,Non,,,msap.crecy-sur-serre@laposte.fr,https://www.maisondeservicesaupublic.fr/content/crecy-sur-serre-bureau-de-poste,,Lundi : 08:30-12:15 et 13:30-16:15 / Mardi au vendredi : 08:30-12:15 et 13:30-17:00 / Samedi : 09:00-12:00,"Mo 08:30-12:15,13:30-16:15; Tu-Fr 08:30-12:15,13:30-17:00; Sa 09:00-12:00",Tout public,,,,,,
Maison de Services au Public de Beaurieux,,,Maison de Service au Public (MSAP),,,,2 rue du Cloitre 02160 Beaurieux,2,Rue du Cloitre,02160,02058,Beaurieux,Aisne,Hauts-de-France,49.393426,3.737572,,Non,0323251540,,msap.beaurieux@laposte.fr,https://www.maisondeservicesaupublic.fr/content/beaurieux-bureau-de-poste,,"Lundi, mercredi et vendredi : 09:00-12:00 et 14:00-17:15 / Mardi : 14:00-17:15 / Jeudi : 14:15-17:15 / Samedi : 09:00-12:00","Mo, We, Fr 09:00-12:00,14:00-17:15; Tu 14:00-17:15; Th 14:15-17:15; Sa 09:00-12:00",Tout public,,,,,,
Maison de Services au Public de Betz,,,Maison de Service au Public (MSAP),,,,6 rue de la Poste 60620 Betz,6,Rue de la Poste,60620,60069,Betz,Oise,Hauts-de-France,49.155715,2.954962,,Non,,,msap.betz@laposte.fr,https://www.maisondeservicesaupublic.fr/content/betz-bureau-de-poste,,"Lundi, mardi, mercredi et vendredi : 09:00-11:30 et 14:00-16:30 / Samedi : 09:00-12:00","Mo, Tu, We, Fr 09:00-11:30,14:00-16:30; Sa 09:00-12:00",Tout public,,,,,,
Maison de Services au Public de Longueil-Sainte-Marie,,,Maison de Service au Public (MSAP),,,,36 rue du grand ferré 60126 Longueil-Sainte-Marie,36,Rue du Grand Ferré,60126,60369,Longueil-Sainte-Marie,Oise,Hauts-de-France,49.354884,2.718754,,Non,,,msap.longueil-ste-marie@laposte.fr,https://www.maisondeservicesaupublic.fr/content/longueil-sainte-marie-bureau-de-poste,,"Lundi, mardi et jeudi : 09:00-11:30 et 14:30-16:30 / Mercredi : 14:30-16:30 / Vendredi : 09:00-11:30 et 14:30-17:00 / Samedi : 09:00-11:30","Mo, Tu, Th 09:00-11:30,14:30-16:30; We 14:30-16:30; Fr 09:00-11:30,14:30-17:00; Sa 09:00-11:30",Tout public,,,,,,
Maison de Services au Public de Ressons-sur-Matz,,,Maison de Service au Public (MSAP),,Groupement d'intérêt public (GIP),,91 rue de Compiègne 60490 Ressons-sur-Matz,91,Rue de Compiegne,60490,60533,Ressons-sur-Matz,Oise,Hauts-de-France,49.537891,2.744749,,Non,0344108243,,mcg-ressons@oise.fr,https://www.maisondeservicesaupublic.fr/content/maison-du-conseil-departemental-de-loise,,Lundi : 14:00-17:00 / Du mardi au vendredi : 09:30-12:30 et 14:00-17:00,"Mo 14:00-17:00; Tu-Fr 09:30-12:30,14:00-17:00",Tout public,,,,,,
Maison de Quartier Joliot Curie - Petit Paris,,,Maison de quartier,,,,Résidence du 19 mars 1962 59590 Raismes,,Rue du 19 Mars 1962,59590,59491,Raismes,Nord,Hauts-de-France,50.382521,3.496711,,Non,0327301678,,mqjc.amq@gmail.com,https://www.quartiersderaismes.fr/index.php/petit-paris,,Du lundi au vendredi : 09:00-12:00 et 14:00-18:00,"Mo-Fr 09:00-12:00,14:00-18:00",Tout public,,,,,,
Centre Socio-Éducatif d’Hazebrouck,,,"Commune (Ville, CCAS, Centre Culturel...)",,,,Place Georges Degroote 59190 Hazebrouck,,Place Georges Degroote,59190,59295,Hazebrouck,Nord,Hauts-de-France,50.721274,2.535082,,Non,0328495130,,paroledecitoyens@csehazebrouck.fr,,,Débutants : vendredi : 16:00-17:45 (une semaine sur deux) ou 18:00-19:45 / Confirmés : vendredi : 16:00-17:45 (une semaine sur deux),,,,,,,,
Centre Social et Culturel de Saint-Omer,,,"Commune (Ville, CCAS, Centre Culturel...)",,,,"rue de Longueville, Allée des Sports 62500 Saint-Omer",,Rue de Longueville,62500,62765,Saint-Omer,Pas-de-Calais,Hauts-de-France,50.745398,2.252921,,Non,0321989266,,mda-saint-omer@wanadoo.fr,,,Vendredi : 09:00-11:00,Fr 09:00-11:00,,,,,,,
Centre Socio-Culturel Dumas,,,"Commune (Ville, CCAS, Centre Culturel...)",,Groupement d'intérêt public (GIP),,3 rue Gustave Courbet 62300 Lens,3,Rue Gustave Courbet,62300,62498,Lens,Pas-de-Calais,Hauts-de-France,50.445261,2.834251,,Non,0321774560,,,,,Du lundi au vendredi : 09:00-12:30 et 13:30-17:00 / Samedi : 10:00-12:00,"Mo-Fr 09:00-12:30,13:30-17:00; Sa 10:00-12:00",,,,,,,
Centre Culturel et Social de Jules Grare,,,,,,,ZAC les Marichelles 62800 Liévin,,Rue des Marichelles,62800,62510,Liévin,Pas-de-Calais,Hauts-de-France,50.425494,2.767576,,Non,0321442060,,julesgrare@lievin.fr,,,mardi : 13:30-15:00 et 16:00-17:30 / Mercredi : 10:00-11:30 / Jeudi : 13:30-15:00 et 15:30-17:00,"Tu 13:30-15:00,16:00-17:30; We 10:00-11:30; Th 13:30-15:00,15:30-17:00",,,,,,,
Maison de Services au Public de Beaurainville,,,Maison de Service au Public (MSAP),,,,17 rue de la Poste 62990 Beaurainville,17,Rue de la Poste,62990,62100,Beaurainville,Pas-de-Calais,Hauts-de-France,50.423572,1.901385,,Non,,,msap.beaurainville@laposte.fr,https://www.maisondeservicesaupublic.fr/content/beaurainville-bureau-de-poste,,Du lundi au vendredi : 09:00-12:00 et 13:30-16:15 / Samedi : 09:00-12:00,"Mo-Fr 09:00-12:00,13:30-16:15; Sa 09:00-12:00",Tout public,,,,,,
Maison de Services au Public d'Ambleteuse,,,Maison de Service au Public (MSAP),,,,8 rue du Maréchal Foch 62164 Ambleteuse,8,Rue du Maréchal Foch,62164,62025,Ambleteuse,Pas-de-Calais,Hauts-de-France,50.809832,1.607695,,Non,,,msap.ambleteuse@laposte.fr,https://www.maisondeservicesaupublic.fr/content/ambleteuse-bureau-de-poste,,"Lundi, mardi, jeudi et vendredi : 09:00-12:00 et 13:30-16:15 / Mercredi et samedi : 09:00-12:00","Mo, Tu, Th, Fr 09:00-12:00,13:30-16:15; We, Sa 09:00-12:00",Tout public,,,,,,
Maison de Services au Public d'Aubigny-sur-Artois,,,Maison de Service au Public (MSAP),,,,23 rue Saint-Kilien 62690 Aubigny-en-Artois,23,Rue Saint-kilien,62690,62045,Aubigny-en-Artois,Pas-de-Calais,Hauts-de-France,50.350538,2.593829,,Non,,,msap.aubigny-en-artois@laposte.fr,https://www.maisondeservicesaupublic.fr/content/aubigny-en-artois-bureau-de-poste,,Du lundi au vendredi : 09:00-12:00 et 14:00-17:00 / Samedi : 09:00-12:00,"Mo-Fr 09:00-12:00,14:00-17:00; Sa 09:00-12:00",Tout public,,,,,,
Maison de Services au Public de Beaumetz-lès-Loges,,,Maison de Service au Public (MSAP),,,,1 rue de la Poste 62123 Beaumetz-lès-Loges,1,Rue de la Poste,62123,62097,Beaumetz-lès-Loges,Pas-de-Calais,Hauts-de-France,50.240207,2.659332,,Non,,,msap.beaumetz-les-loges@laposte.fr,https://www.maisondeservicesaupublic.fr/content/beaumetz-les-loges-bureau-de-poste,,Du lundi au vendredi : 09:00-12:00 et 14:00-17:00 / Samedi : 09:00-12:00,"Mo-Fr 09:00-12:00,14:00-17:00; Sa 09:00-12:00",Tout public,,,,,,
Maison de Services au Public d'Anvin,,,Maison de Service au Public (MSAP),,,,274 rue d'Hesdin 62134 Anvin,274,Rue d'Hesdin,62134,62036,Anvin,Pas-de-Calais,Hauts-de-France,50.446705,2.252165,,Non,,,msap.anvin@laposte.fr,https://www.maisondeservicesaupublic.fr/content/anvin-bureau-de-poste,,"Lundi, mardi, mercredi et vendredi : 08:30-12:00 et 14:00-16:15 / Jeudi et samedi : 08:30-12:00","Mo, Tu, We, Fr 08:30-12:00,14:00-16:15; Th, Sa 08:30-12:00",Tout public,,,,,,
Maison de Services au Public de Cambrin,,,Maison de Service au Public (MSAP),,,,68 boulevard Louis Lesage 62149 Cambrin,68,Boulevard Louis Lesage,62149,62200,Cambrin,Pas-de-Calais,Hauts-de-France,50.511127,2.738101,,Non,,,msap.cambrin@laposte.fr,https://www.maisondeservicesaupublic.fr/content/cambrin-bureau-de-poste,,Du lundi au vendredi : 09:00-12:00 et 14:00-17:00 / Samedi : 09:00-12:00,"Mo-Fr 09:00-12:00,14:00-17:00; Sa 09:00-12:00",Tout public,,,,,,
Maison de Services au Public d'Écourt-Saint-Quentin,,,Maison de Service au Public (MSAP),,,,80 rue Henri Barbusse 62860 Écourt-Saint-Quentin,80,Rue Henri Barbusse,62860,62284,Écourt-Saint-Quentin,Pas-de-Calais,Hauts-de-France,50.249345,3.06965,,Non,,,msap.ecourt-saint-quentin@laposte.fr,https://www.maisondeservicesaupublic.fr/content/ecourt-saint-quentin-bureau-de-poste,,Du mardi au vendredi : 09:00-12:00 et 13:45-17:30 / Samedi : 09:00-12:00,"Tu-Fr 09:00-12:00,13:45-17:30; Sa 09:00-12:00",Tout public,,,,,,
Maison de Services au Public d'Étaples,,,Maison de Service au Public (MSAP),,,,9 rue du Général Obert 62630 Étaples,9,Rue du Général Obert,62630,62318,Étaples,Pas-de-Calais,Hauts-de-France,50.514383,1.639669,,Non,,,msap.etaples@laposte.fr,https://www.maisondeservicesaupublic.fr/content/etaples-bureau-de-poste,,,,Tout public,,,,,,
Maison de Services au Public de Fauquembergues,,,Maison de Service au Public (MSAP),,,,4 B rue Jonnart 62560 Fauquembergues,4 b,Rue Jonnart,62560,62325,Fauquembergues,Pas-de-Calais,Hauts-de-France,50.599633,2.094744,,Non,,,msap.fauquembergues@laposte.fr,https://www.maisondeservicesaupublic.fr/content/fauquembergues-bureau-de-poste,,Du lundi au vendredi : 09:00-12:00 et 14:00-16:30 / Samedi : 09:00-12:00,"Mo-Fr 09:00-12:00,14:00-16:30; Sa 09:00-12:00",Tout public,,,,,,
Maison de Services au Public d'Hucqueliers,,,Maison de Service au Public (MSAP),,,,6 rue JLB Coquerel 62650 Hucqueliers,6,Rue Jlb Cocquerel,62650,62463,Hucqueliers,Pas-de-Calais,Hauts-de-France,50.567826,1.909127,,Non,,,msap.hucqueliers@laposte.fr,https://www.maisondeservicesaupublic.fr/content/hucqueliers-bureau-de-poste,,Du lundi au jeudi : 09:00-12:00 et 13:30-16:30 / Vendredi : 09:00-12:00 et 14:00-16:30 / Samedi : 08:30-12:00,"Mo-Th 09:00-12:00,13:30-16:30; Fr 09:00-12:00,14:00-16:30; Sa 08:30-12:00",Tout public,,,,,,
Centre Social Cité des Brebis,,,"Commune (Ville, CCAS, Centre Culturel...)",,,,"Place de la Marne, Cité des Brebis 62670 Mazingarbe",,Boulevard de la Cite 2,62670,62563,Mazingarbe,Pas-de-Calais,Hauts-de-France,50.462275,2.711144,,Non,0321372800,,csmazingarbe@orange.fr,,,Samedi : 10:00-12:00,Sa 10:00-12:00,,,,,,,
Centre Social Maison des 3 Cités,,,"Commune (Ville, CCAS, Centre Culturel...)",,,,Chemin de la Bassée 62670 Mazingarbe,,Chemin de la Bassee,62670,62563,Mazingarbe,Pas-de-Calais,Hauts-de-France,50.465642,2.745949,,Non,0321372800,,csmazingarbe@orange.fr,,,Jeudi : 14:00-17:00,Th 14:00-17:00,,,,,,,
Centre Social Max Pol Fouchet,,,"Commune (Ville, CCAS, Centre Culturel...)",,Groupement d'intérêt public (GIP),,Rue Jean Jacques Rousseau 62680 Méricourt,,Rue Jean-jacques Rousseau,62680,62570,Méricourt,Pas-de-Calais,Hauts-de-France,50.401947,2.867843,,Non,0964107961,,contact@mairie-mericourt.fr,,,mercredi : 14:00-17:00,We 14:00-17:00,Tout public,,,,,,
Maison de Services au Public de Sains-en-Gohelle,,,Maison de Service au Public (MSAP),,,,1 place de la Mairie 62114 Sains-en-Gohelle,1,Place de la Mairie,62114,62737,Sains-en-Gohelle,Pas-de-Calais,Hauts-de-France,50.447469,2.683968,,Non,0321456295,,msap.sains-en-gohelle@laposte.fr,https://www.maisondeservicesaupublic.fr/content/sains-en-gohelle-bureau-de-poste,,Du lundi au vendredi : 08:45-12:00 et 13:45-16:45 / Samedi : 08:45-12:00,"Mo-Fr 08:45-12:00,13:45-16:45; Sa 08:45-12:00",Tout public,,,,,,
Maison de Services au Public de Thérouanne,,,Maison de Service au Public (MSAP),,,,46 Grande Rue 62129 Thérouanne,46,Grand Rue,62129,62811,Thérouanne,Pas-de-Calais,Hauts-de-France,50.634556,2.261499,,Non,,,msap.therouanne@laposte.fr,https://www.maisondeservicesaupublic.fr/content/therouanne-bureau-de-poste,,Du lundi au vendredi : 09:00-12:00 et 14:00-16:30 / Samedi : 09:00-12:00,"Mo-Fr 09:00-12:00,14:00-16:30; Sa 09:00-12:00",Tout public,,,,,,
Maison de Services au Public de Thérouanne,,,Maison de Service au Public (MSAP),,,,46 Grande Rue 62129 Thérouanne,46,Grand Rue,62129,62811,Thérouanne,Pas-de-Calais,Hauts-de-France,50.634556,2.261499,,Non,,,msap.therouanne@laposte.fr,https://www.maisondeservicesaupublic.fr/content/therouanne-bureau-de-poste,,Du lundi au vendredi : 09:00-12:00 et 14:00-16:30 / Samedi : 09:00-12:00,"Mo-Fr 09:00-12:00,14:00-16:30; Sa 09:00-12:00",Tout public,,,,,,
Maison de Services au Public de Licques,,,Maison de Service au Public (MSAP),,,,101 rue du Bourg 62850 Licques,101,Rue au Bourg,62850,62506,Licques,Pas-de-Calais,Hauts-de-France,50.784963,1.933789,,Non,,,msap.licques@laposte.fr,https://www.maisondeservicesaupublic.fr/content/licques-bureau-de-poste,,Du lundi au vendredi : 09:00-16:30 / Samedi : 09:00-12:00,Mo-Fr 09:00-16:30; Sa 09:00-12:00,Tout public,,,,,,
Maison de Services au Public de Pas-en-Artois,,,Maison de Service au Public (MSAP),,,,11 rue du Châtelet 62760 Pas-en-Artois,11,Rue du Châtelet,62760,62649,Pas-en-Artois,Pas-de-Calais,Hauts-de-France,50.156444,2.488358,,Non,,,msap.pas-en-artois@laposte.fr,https://www.maisondeservicesaupublic.fr/content/pas-en-artois-bureau-de-poste,,,,Tout public,,,,,,
Maison de Services au Public de Pernes,,,Maison de Service au Public (MSAP),,,,11 rue du Général de Gaulle 62550 Pernes,11,Rue du General de Gaulle,62550,62652,Pernes,Pas-de-Calais,Hauts-de-France,50.482845,2.409249,,Non,,,msap.pernes@laposte.fr,https://www.maisondeservicesaupublic.fr/content/pernes-bureau-de-poste,,Du lundi au vendredi : 09:00-12:00 – 14:00-17:00 / Samedi : 09:00-12:00,,Tout public,,,,,,
Centre Social Kaleido,,,"Commune (Ville, CCAS, Centre Culturel...)",,Groupement d'intérêt public (GIP),,8 rue du Maréchal Leclerc 62221 Noyelles-sous-Lens,8,Rue du Maréchal Leclerc,62221,62628,Noyelles-sous-Lens,Pas-de-Calais,Hauts-de-France,50.424958,2.887608,,Non,0321709020,,centresocial@noyelles-sous-lens.fr,,,Lundi : 14:00-16:00 / Mardi : 10:00-12:00 et 17:00-19:00 / Mercredi 10:00-12:00 et 14:00-17:00 / Jeudi : 10:00-12:00 et 16:00-17:00 / Vendredi : 10:00-12:00 et 14:00-17:00,"Mo 14:00-16:00; Tu 10:00-12:00,17:00-19:00; We 10:00-12:00,14:00-17:00; Th 10:00-12:00,16:00-17:00; Fr 10:00-12:00,14:00-17:00",Tout public,,,,,,
Médiathèque d'Aix en Pévèle,,,,,Groupement d'intérêt public (GIP),,1 rue du général de Gaulle 59310 Aix en Pévèle,,Rue du General de Gaulle,59310,59004,Aix-en-Pévèle,Nord,Hauts-de-France,50.502594,3.318692,,Non,0320345987,,mediathaix@orange.fr,https://espaceenpevele.reseaubibli.fr/,,"Mercredi 10h00-12h00/14h00-18h00 , samedi 10h00-12h00/14h00-16h30","We 10:00-12:00,14:00-18:00 , Sa 10:00-12:00,14:00-16:30",Tout public,,,,,,
Espace multimédia d'Annoeullin,,,,,Groupement d'intérêt public (GIP),,Boulevard Léon Blum 59112 Annoeullin,,Boulevard Leon Blum,59112,59011,Annœullin,Nord,Hauts-de-France,50.532376,2.93337,,Non,0320161590,,bib@cchd.fr,http://bib.cchd.fr,,Mardi : 10:00-12:00 et 15:00-17:00 / Mercredi : 10:00-12:00 et 14:00-17:00 / Jeudi : 15:00-17:00 / Vendredi : 15:00-18:00 / Samedi : 10:00-12:00 et 14:00-17:00,"Tu 10:00-12:00,15:00-17:00; We 10:00-12:00,14:00-17:00; Th 15:00-17:00; Fr 15:00-18:00; Sa 10:00-12:00,14:00-17:00",Tout public,,,,,,
Bibliothèque Anor,,,,,Groupement d'intérêt public (GIP),,36 rue Pasteur 59186 Anor,36,Rue Pasteur,59186,59012,Anor,Nord,Hauts-de-France,49.989364,4.101193,,Non,0327597468,,contact-bibliotheque@anor.fr,http://www.anor.fr,,Mardi : 16:00-18:00 / Mercredi : 14:30-19:00 / Jeudi : 16:30-18:00 / Vendredi : 16:00-20:00,Tu 16:00-18:00; We 14:30-19:00; Th 16:30-18:00; Fr 16:00-20:00,Tout public,,,,,,
Bibliothèque Anzin,,,,,Groupement d'intérêt public (GIP),,place de Boussu 59410 Anzin,,Place de Boussu,59410,59014,Anzin,Nord,Hauts-de-France,50.369015,3.502598,,Non,0361321060,,,,,Mardi : 15:00-18:30 / Mercredi : 10:00-12:00 et 14:00-18:30 / Vendredi : 10:00-12:00 et 14:00-19:00 / Samedi : 10:00-12:00 et 12:00-17:30,"Tu 15:00-18:30; We 10:00-12:00,14:00-18:30; Fr 10:00-12:00,14:00-19:00; Sa 10:00-12:00,12:00-17:30",Tout public,,,,,,
Bibliothèque Armbouts-Cappel,,,,,Groupement d'intérêt public (GIP),,square Jacques Prévert 59380 Armbouts Cappel,,Square Jacques Prévert,59380,59016,Armbouts-Cappel,Nord,Hauts-de-France,50.979171,2.353062,,Non,0328248401,,,,,Mardi : 16:00-18:00 / Mercredi : 09:00-12:00 et 14:00-18:00 / Jeudi : 16:00-18:00 / Vendredi : 16:00-18:00 / Samedi : 09:00-12:00 et 14:00-18:00,"Tu 16:00-18:00; We 09:00-12:00,14:00-18:00; Th 16:00-18:00; Fr 16:00-18:00; Sa 09:00-12:00,14:00-18:00",Tout public,,,,,,
Arneke,,,,,Groupement d'intérêt public (GIP),,7 rue de CASSEL 59285 Arneke,7,Rue de Cassel,59285,59018,Arnèke,Nord,Hauts-de-France,50.832919,2.409025,,Non,0328410891,,,,,Mardi : 13:30-16:30 / Mercredi : 13:30-16:30 / Jeudi : 09:00-12:00 / Samedi : 10:00-11:30,Tu 13:30-16:30; We 13:30-16:30; Th 09:00-12:00; Sa 10:00-11:30,Tout public,,,,,,
Bibliothèque Assevent,,,,,Groupement d'intérêt public (GIP),,Bibliotheque Municipale Marcel Pagnol 59600 Assevent,,Rue Marcel Michel - Bibliotheque Municipale,24120,24547,Terrasson-Lavilledieu,Dordogne,Nouvelle-Aquitaine,45.126683,1.302074,,Non,,,,,,,,Tout public,,,,,,
Ateliers du Littoral Dunkerquois,,,,,Groupement d'intérêt public (GIP),,Rue Paul CLAUDEL 59229 Teteghem,,Rue Paul Claudel,59229,59588,Téteghem-Coudekerque-Village,Nord,Hauts-de-France,51.032131,2.413031,,Non,,,,,,,,Tout public,,,,,,
Bibliothèque Auchy,,,,,Groupement d'intérêt public (GIP),,rue du Noir Debout 59310 Auchy-lez-Orchies,,Rue du Noir Debout,59310,59029,Auchy-lez-Orchies,Nord,Hauts-de-France,50.477743,3.205218,,Non,0320610230,,mediathequeauchylesorchies@orange.fr,,,Lundi : 17:00-19:00 / Mercredi : 14:00-19:00 / Vendredi : 17:00-19:00 / Dimanche : 10:00-12:00,Mo 17:00-19:00; We 14:00-19:00; Fr 17:00-19:00; Su 10:00-12:00,Tout public,,,,,,
Bibliothèque Aulnoy Lez Valenciennes,,,,,Groupement d'intérêt public (GIP),,rue St Just 59300 Aulnoy lez Valenciennes,,Rue Saint-just,59300,59032,Aulnoy-lez-Valenciennes,Nord,Hauts-de-France,50.331725,3.520643,,Non,,,,,,,,Tout public,,,,,,
Bibliothèque Avelin,,,,,Groupement d'intérêt public (GIP),,Place Guillaume des Rotours 59710 Avelin,,Allee des Lauriers,59710,59034,Avelin,Nord,Hauts-de-France,50.536293,3.085138,,Non,,,,,,,,Tout public,,,,,,
Bibliothèque Avesnes-les-Aubert,,,,,Groupement d'intérêt public (GIP),,"3, rue Camélinat 59129 AVESNES-LES- AUBERT",3,Rue Camelinat,59129,59037,Avesnes-les-Aubert,Nord,Hauts-de-France,50.197886,3.37801,,Non,,,,,,,,Tout public,,,,,,
Bibliothèque Bachy,,,,,Groupement d'intérêt public (GIP),,10 rue du Maréchal Foch 59830 Bachy,10,Rue du Maréchal Foch,59830,59042,Bachy,Nord,Hauts-de-France,50.549804,3.259553,,Non,,,,,,,,Tout public,,,,,,
Bibliothèque Bailleul,,,,,Groupement d'intérêt public (GIP),,22 Bis rue d'Ypres 59270 Bailleul,22 bis,Rue d''Ypres,59270,59043,Bailleul,Nord,Hauts-de-France,50.740045,2.737217,,Non,,,,,,,,Tout public,,,,,,
Bibliothèque Bavay,,,,,Groupement d'intérêt public (GIP),,rue des Juifs 59570 BAVAY,,Rue des Juifs,59570,59053,Bavay,Nord,Hauts-de-France,50.297762,3.794453,,Non,,,,,,,,Tout public,,,,,,
Bibliothèque Bavinchove,,,,,Groupement d'intérêt public (GIP),,5 Place de l'eglise 59670 BAVINCHOVE,5,Place de l'Eglise,59670,59054,Bavinchove,Nord,Hauts-de-France,50.786648,2.452929,,Non,,,,,,,,Tout public,,,,,,
Bibliothèque Beaudignies,,,,,Groupement d'intérêt public (GIP),,1 rue du Marais 59530 Beaudignies,1,Rue du Marais,59530,59057,Beaudignies,Nord,Hauts-de-France,50.236247,3.591877,,Non,,,,,,,,Tout public,,,,,,
Bibliothèque Beauvois-en-Cambrésis,,,,,Groupement d'intérêt public (GIP),,"17, rue Berthelot 59157 BEAUVOIS-EN-CAMBRESIS",,Rue Marcellin Berthelot,59157,59063,Beauvois-en-Cambrésis,Nord,Hauts-de-France,50.140739,3.381317,,Non,,,,,,,,Tout public,,,,,,
Bibliothèque Bellaing,,,,,Groupement d'intérêt public (GIP),,Rue Jean Jaurès 59135 BELLAING,,Rue Jean Jaures,59135,59064,Bellaing,Nord,Hauts-de-France,50.366156,3.4278,,Non,,,,,,,,Tout public,,,,,,
Bibliothèque Berguez,,,,,Groupement d'intérêt public (GIP),,39 blvd Carnot 59380 Bergues,39,Rue Carnot,59380,59067,Bergues,Nord,Hauts-de-France,50.967301,2.428982,,Non,,,,,,,,Tout public,,,,,,
Bibliothèque Berthe,,,,,Groupement d'intérêt public (GIP),,rue Léon Gambetta 59270 BERTHEN,,Rue Leon Gambetta,59170,59163,Croix,Nord,Hauts-de-France,50.675194,3.147862,,Non,,,,,,,,Tout public,,,,,,
Bibliothèque Beuvrages,,,,,Groupement d'intérêt public (GIP),,Place Hector Rousseau 59192 BEUVRAGES,,Place Hector Rousseau,59192,59079,Beuvrages,Nord,Hauts-de-France,50.383768,3.50806,,Non,,,,,,,,Tout public,,,,,,
Bibliothèque Blaringhem,,,,,Groupement d'intérêt public (GIP),,Route d'Hazebrouck 59173 BLARINGHEM,,Route d'Hazebrouck,59173,59084,Blaringhem,Nord,Hauts-de-France,50.691017,2.407369,,Non,,,,,,,,Tout public,,,,,,
Bibliothèque Boeschepe,,,,,Groupement d'intérêt public (GIP),,"163,Rue de la mairie 59299 BOESCHEPE",163,Rue de la Mairie,59299,59086,Boeschepe,Nord,Hauts-de-France,50.800125,2.691052,,Non,,,,,,,,Tout public,,,,,,
Bibliothèque des Bois Blancs,,,,,Groupement d'intérêt public (GIP),,36 Avenue Marx Dormoy 59000 LILLE,36,Avenue Marx Dormoy,59000,59350,Lille,Nord,Hauts-de-France,50.635345,3.034691,,Non,0320925287,,,http://www.bm-lille.fr/Default/bois-blancs.aspx,,"Mardi, jeudi et vendredi : 14:00-18:00 / Mercredi et samedi : 10:00-13:00 et 14:00-18:00","Tu, Th, Fr 14:00-18:00; We, Sa 10:00-13:00,14:00-18:00",Tout public,,,,,,
Bibliothèque Bollezeele,,,,,Groupement d'intérêt public (GIP),,3 GRAND PLACE 59470 BOLLEZEELE,3,Grand Place,59470,59089,Bollezeele,Nord,Hauts-de-France,50.865103,2.32724,,Non,,,,,,,,Tout public,,,,,,
Bibliothèque Bouchain,,,,,Groupement d'intérêt public (GIP),,Esplanade du Général de Gaulle 59111 BOUCHAIN,,Esplanade Cherles de Gaulle,59111,59092,Bouchain,Nord,Hauts-de-France,50.282966,3.319357,,Non,,,,,,,,Tout public,,,,,,
Bibliothèque Bourbourg,,,,,Groupement d'intérêt public (GIP),,rue Jean Varlet 59630 Bourbourg,,Rue Jean Varlet,59630,59094,Bourbourg,Nord,Hauts-de-France,50.943343,2.194996,,Non,,,,,,,,Tout public,,,,,,
Bibliothèque Bourghelles,,,,,Groupement d'intérêt public (GIP),,Chemin des valettes 59830 BOURGHELLES,,Rue des Valettes,59830,59096,Bourghelles,Nord,Hauts-de-France,50.563229,3.244097,,Non,,,,,,,,Tout public,,,,,,
Médiathèque de Bouvignies,,,,,Groupement d'intérêt public (GIP),,295 rue de la Place 59870 BOUVIGNIES,295,Rue de la Place,59870,59105,Bouvignies,Nord,Hauts-de-France,50.434721,3.245128,,Non,0327913333,,media.bouvignies@wanadoo.fr,https://espaceenpevele.reseaubibli.fr/index.php?database=ccep,,Mercredi et Samedi : 10h/12h et 14h/17h-Vendredi : 15h/18h,,Demandeurs d'emploi,,,,,,
Bibliothèque Bray-Dunes,,,,,Groupement d'intérêt public (GIP),,Place de la Gare 59123 BRAY-DUNES,,Place de la Gare,59123,59107,Bray-Dunes,Nord,Hauts-de-France,51.070155,2.517909,,Non,,,,,,,,Tout public,,,,,,
Bibliothèque Brouckerque,,,,,Groupement d'intérêt public (GIP),,1 rue des Pinsons 59630 BROUCKERQUE,1,Rue des Pinsons,59630,59110,Brouckerque,Nord,Hauts-de-France,50.95279,2.293153,,Non,,,,,,,,Tout public,,,,,,
Bibliothèque Bruay-sur-l'Escaut,,,,,Groupement d'intérêt public (GIP),,"1, rue Waldeck Rousseau 59860 BRUAY-SUR-L'ESCAUT",1,Rue Waldeck Rousseau,59860,59112,Bruay-sur-l'Escaut,Nord,Hauts-de-France,50.396046,3.539764,,Non,,,,,,,,Tout public,,,,,,
Bibliothèque Bruille-Saint-Amand,,,,,Groupement d'intérêt public (GIP),,"431, rue Pasteur 59199 BRUILLE SAINT AMAND",431,Rue Louis Pasteur,59199,59114,Bruille-Saint-Amand,Nord,Hauts-de-France,50.456557,3.525404,,Non,,,,,,,,Tout public,,,,,,
Bibliothèque Buysscheure,,,,,Groupement d'intérêt public (GIP),,214 Place 59285 BUYSSCHEURE,214,La Place,59285,59119,Buysscheure,Nord,Hauts-de-France,50.804053,2.333948,,Non,,,,,,,,Tout public,,,,,,
Bibliothèque Camphin-en-Carembault,,,,,Groupement d'intérêt public (GIP),,8 rue du Général de Gaulle 59133 CAMPHIN-EN-CAREMBAULT,8,Rue du Général de Gaulle,59133,59123,Camphin-en-Carembault,Nord,Hauts-de-France,50.510627,2.988626,,Non,,,,,,,,Tout public,,,,,,
Bibliothèque Cantaing-sur-Escaut,,,,,Groupement d'intérêt public (GIP),,63 Grande Rue 59267 CANTAING-SUR-ESCAUT,63,Grand'Rue,59267,59125,Cantaing-sur-Escaut,Nord,Hauts-de-France,50.148505,3.163515,,Non,,,,,,,,Tout public,,,,,,
Bibliothèque Cappelle-la-Grande,,,,,Groupement d'intérêt public (GIP),,Place B.Gouvart 59180 CAPPELLE LA GRANDE,,Place Bernard Gouvart,59180,59131,Cappelle-la-Grande,Nord,Hauts-de-France,50.997225,2.365871,,Non,,,,,,,,Tout public,,,,,,
Bibliothèque Capelle-en-Pévèle,,,,,Groupement d'intérêt public (GIP),,"5, Rue Ladrerie 59242 CAPPELLE-EN-PEVELE",5,Rue de la Ladrerie,59242,59129,Cappelle-en-Pévèle,Nord,Hauts-de-France,50.50763,3.171582,,Non,,,,,,,,Tout public,,,,,,
Bibliothèque Cappellebrouck,,,,,Groupement d'intérêt public (GIP),,2658 ROUTE DE BOURBOURG 59630 CAPPELLEBROUCK,2658,Route de Bourbourg,59630,59130,Cappelle-Brouck,Nord,Hauts-de-France,50.90313,2.221275,,Non,,,,,,,,Tout public,,,,,,
Bibliothèque Communauté de Communes Coeur d'Ostrevent,,,,,Groupement d'intérêt public (GIP),,avenue du Bois 59287 LEWARDE,,Avenue du Bois,59287,59345,Lewarde,Nord,Hauts-de-France,50.337372,3.165523,,Non,,,,,,,,Tout public,,,,,,
Bibliothèque Communauté de Communes du Carembault,,,,,Groupement d'intérêt public (GIP),,3 rue Jules Roch 59310 ORCHIES,3,Rue Jules Roch,59310,59449,Orchies,Nord,Hauts-de-France,50.473552,3.242491,,Non,,,,,,,,Tout public,,,,,,
Bibliothèque Communauté de Communes Rurales des 2 Helpes,,,,,Groupement d'intérêt public (GIP),,59440 MARBAIX,,Marbaix,59440,59374,Marbaix,Nord,Hauts-de-France,50.128201,3.835842,,Non,,,,,,,,Tout public,,,,,,
Bibliothèque Communauté de Communes de Weppes,,,,,Groupement d'intérêt public (GIP),,84 rue de Pourtalès 59280 BOIS GRENIER,84,Rue de Pourtales,59280,59088,Bois-Grenier,Nord,Hauts-de-France,50.648957,2.874333,,Non,,,,,,,,Tout public,,,,,,
Centre de Ressources théâtre,,,,,Groupement d'intérêt public (GIP),,104 rue de Cambrai 59000 Lille,104,Rue de Cambrai,59000,59350,Lille,Nord,Hauts-de-France,50.624015,3.074351,,Non,,,,,,,,Tout public,,,,,,
Bibliothèque Château l'Abbaye,,,,,Groupement d'intérêt public (GIP),,2 bis rue de la fontaine 59230 CHATEAU-L'ABBAYE,2 bis,Rue de la Fontaine,59230,59144,Château-l'Abbaye,Nord,Hauts-de-France,50.48347,3.478334,,Non,,,,,,,,Tout public,,,,,,
Bibliothèque Chemy,,,,,Groupement d'intérêt public (GIP),,"8, rue de la Mairie 59147 CHEMY",8,Rue de la Mairie,59147,59145,Chemy,Nord,Hauts-de-France,50.532329,2.997105,,Non,,,,,,,,Tout public,,,,,,
Bibliothèque Condé-sur-l'Escaut,,,,,Groupement d'intérêt public (GIP),,13 impasse Berthelot 59163 Condé sur Escaut,13,Rue Berthelot,59163,59153,Condé-sur-l'Escaut,Nord,Hauts-de-France,50.446093,3.59365,,Non,,,,,,,,Tout public,,,,,,
Bibliothèque Courchelettes,,,,,Groupement d'intérêt public (GIP),,2 bis rue Fernand Stassin 59552 COURCHELETTES,2 bis,Rue Fernand Stassin,59552,59156,Courchelettes,Nord,Hauts-de-France,50.342208,3.062125,,Non,,,,,,,,Tout public,,,,,,
Bibliothèque Cousorle,,,,,Groupement d'intérêt public (GIP),,31 rue Eloi Cougneau 59149 Cousolre,31,Rue Eloi Cougneau,59149,59157,Cousolre,Nord,Hauts-de-France,50.24383,4.149809,,Non,,,,,,,,Tout public,,,,,,
Bibliothèque Coutiches,,,,,Groupement d'intérêt public (GIP),,1325 route nationale 59310 COUTICHES,1325,Route Nationale,59310,59158,Coutiches,Nord,Hauts-de-France,50.452558,3.201269,,Non,0320059801,,mediatheque.coutiches@orange.fr,,,Mercredi : 15:00-18:00 / Samedi : 10:30-12:00,We 15:00-18:00; Sa 10:30-12:00,Tout public,,,,,,
Bibliothèque Crespin,,,,,Groupement d'intérêt public (GIP),,rue du moulin 59154 Crespin,,Rue du Moulin,59154,59160,Crespin,Nord,Hauts-de-France,50.422427,3.661019,,Non,0327458497,,webmaster@crespin.fr,https://www.crespin.fr/culture/mediatheque/,,Lundi au vendredi de 10h à 12h et de 13h à 18h et le samedi de 10h à 12h,"Mo-Fr 10:00-12:00,13:00-18:00, Sa 10:00-12:00",Demandeurs d'emploi,,,,,,
Bibliothèque Denain,,,,,Groupement d'intérêt public (GIP),,146 rue Villars 59220 DENAIN,146,Rue Villars,59220,59172,Denain,Nord,Hauts-de-France,50.326561,3.397004,,Non,,,,,,,,Tout public,,,,,,
Bibliothèque Dompière-sur-Helpe,,,,,Groupement d'intérêt public (GIP),,Rue d'en haut 59440 Dompierre-sur-Helpe,,Rue d'En Haut,59440,59177,Dompierre-sur-Helpe,Nord,Hauts-de-France,50.142222,3.862606,,Non,,,,,,,,Tout public,,,,,,
Bibliothèque Douchy-les-Mines,,,,,Groupement d'intérêt public (GIP),,Place Paul Eluard 59282 DOUCHY LES MINES,,Place Paul Eluard,59282,59179,Douchy-les-Mines,Nord,Hauts-de-France,50.299915,3.390701,,Non,,,,,,,,Tout public,,,,,,
Bibliothèque Drincham,,,,,Groupement d'intérêt public (GIP),,132 Heer Straete 59630 DRINCHAM,,Heer Straete,59630,59182,Drincham,Nord,Hauts-de-France,50.905388,2.309443,,Non,,,,,,,,Tout public,,,,,,
Dunkerque Learning Center,,,,,Groupement d'intérêt public (GIP),,Halle aux sucres 9003 Route du quai Freycinet 3 59140 Dunkerque,,Route du Quai Freycinet 3,59140,59183,Dunkerque,Nord,Hauts-de-France,51.035754,2.364628,,Non,,,,,,,,Tout public,,,,,,
Bibliothèque Dunkerque (Basse Ville),,,,,Groupement d'intérêt public (GIP),,"36,Rue du Fort Louis 59140 Dunkerque",36,Rue du Fort Louis,59140,59183,Dunkerque,Nord,Hauts-de-France,51.02799,2.375431,,Non,,,,,,,,Tout public,,,,,,
Bibliothèque Dunkerque (centre),,,,,Groupement d'intérêt public (GIP),,"4,Rue Benjamin Morel 59140 Dunkerque",4,Rue Benjamin Morel,59140,59183,Dunkerque,Nord,Hauts-de-France,51.036481,2.382061,,Non,,,,,,,,Tout public,,,,,,
Bibliothèque Dunkerque (Malo),,,,,Groupement d'intérêt public (GIP),,"122,avenue de la mer 59240 Dunkerque",122,Avenue de la Mer,59240,59183,Dunkerque,Nord,Hauts-de-France,51.045752,2.403094,,Non,,,,,,,,Tout public,,,,,,
Bibliothèque Dunkerque (Petite-Synthe),,,,,Groupement d'intérêt public (GIP),,Rue Franchet D'Esperey 59140 Dunkerque,,Rue Franchet d'Esperey,59640,59183,Dunkerque,Nord,Hauts-de-France,51.022784,2.349976,,Non,,,,,,,,Tout public,,,,,,
Bibliothèque Dunkerque (Rosendaël),,,,,Groupement d'intérêt public (GIP),,"66,Place de la Vallée Des Roses 59240 Dunkerque",66,Place de la Vallée des Roses,59240,59183,Dunkerque,Nord,Hauts-de-France,51.040391,2.404584,,Non,,,,,,,,Tout public,,,,,,
Bibliothèque Emerchicourt,,,,,Groupement d'intérêt public (GIP),,rue Pablo Picasso 59580 EMERCHICOURT,,Rue Pablo Picasso,59580,59192,Émerchicourt,Nord,Hauts-de-France,50.314073,3.25642,,Non,,,,,,,,Tout public,,,,,,
Bibliothèque Englos,,,,,Groupement d'intérêt public (GIP),,rue Paul Procureur 59320 ENGLOS,,Rue Paul Procureur,59320,59195,Englos,Nord,Hauts-de-France,50.624956,2.95705,,Non,,,,,,,,Tout public,,,,,,
Bibliothèque Ennetières-en-Weppes,,,,,Groupement d'intérêt public (GIP),,34 rue du bourg 59320 ENNETIERES EN WEPPES,34,Rue du Bourg,59320,59196,Ennetières-en-Weppes,Nord,Hauts-de-France,50.635226,2.938993,,Non,,,,,,,,Tout public,,,,,,
Bibliothèque Erre,,,,,Groupement d'intérêt public (GIP),,69 rue Jean Jaurès 59171 ERRE,69,Rue Jean Jaurès,59171,59203,Erre,Nord,Hauts-de-France,50.361681,3.312841,,Non,,,,,,,,Tout public,,,,,,
Bibliothèque Escaudain,,,,,Groupement d'intérêt public (GIP),,1 rue de la savonnerie 59124 ESCAUDAIN,1,Rue de la Savonnerie,59124,59205,Escaudain,Nord,Hauts-de-France,50.336895,3.35062,,Non,,,,,,,,Tout public,,,,,,
Bibliothèque Escaudoeuvres,,,,,Groupement d'intérêt public (GIP),,292 rue Jean Jaurès 59161 ESCAUDOEUVRES,292,Rue Jean Jaures,59161,59206,Escaudœuvres,Nord,Hauts-de-France,50.193794,3.265945,,Non,,,,,,,,Tout public,,,,,,
Bibliothèque Escobecques,,,,,Groupement d'intérêt public (GIP),,6 rue de Forterie 59320 ESCOBECQUES,,Rue de la Cossetterie,59320,59208,Escobecques,Nord,Hauts-de-France,50.620678,2.930897,,Non,,,,,,,,Tout public,,,,,,
Bibliothèque Estreux,,,,,Groupement d'intérêt public (GIP),,"29, rue Jean Jaurès 59990 ESTREUX",29,Rue Jean Jaures,59990,59215,Estreux,Nord,Hauts-de-France,50.349424,3.59327,,Non,,,,,,,,Tout public,,,,,,
Bibliothèque Famars,,,,,Groupement d'intérêt public (GIP),,Rue de Bermerain 59300 Famars,,Rue de Bermerain,59300,59221,Famars,Nord,Hauts-de-France,50.313817,3.518848,,Non,,,,,,,,Tout public,,,,,,
Bibliothèque Faubourg de Béthune,,,,,Groupement d'intérêt public (GIP),,"6 bis boulevard de Metz, square Chopin 59000 LILLE",,Square Frederic Chopin,59000,59350,Lille,Nord,Hauts-de-France,50.619789,3.036131,,Non,0320304200,,,http://www.bm-lille.fr/Default/faubourg-de-bethune.aspx,,"Mardi, jeudi et vendredi : 14:00-18:00 / Mercredi et samedi : 10:00-13:00 et 14:00-18:00","Tu, Th, Fr 14:00-18:00; We, Sa 10:00-13:00,14:00-18:00",Tout public,,,,,,
Bibliothèque Faumont,,,,,Groupement d'intérêt public (GIP),,186 route nationale 59310 FAUMONT,186,Route Nationale,59310,59222,Faumont,Nord,Hauts-de-France,50.462874,3.136513,,Non,,,,,,,,Tout public,,,,,,
Bibliothèque Feignies,,,,,Groupement d'intérêt public (GIP),,MEDIATHEQUE MUNICIPALE 59750 FEIGNIES,,Rue Wallone,59750,59225,Feignies,Nord,Hauts-de-France,50.303561,3.918549,,Non,,,,,,,,Tout public,,,,,,
Bibliothèque de Fives Lille,,,,,Groupement d'intérêt public (GIP),,18 Rue Bourjembois 59000 LILLE,18,Rue Bourjembois,59800,59350,Lille,Nord,Hauts-de-France,50.631307,3.089372,,Non,0320475514,,,http://www.bm-lille.fr/Default/fives.aspx,,"Mardi, jeudi et vendredi : 14:00-18:00 / Mercredi et samedi : 10:00-13:00 et 14:00-18:00","Tu, Th, Fr 14:00-18:00; We, Sa 10:00-13:00,14:00-18:00",Tout public,,,,,,
Bibliothèque Flesquières,,,,,Groupement d'intérêt public (GIP),,Rue de l'Eglise 59267 FLESQUIÈRES,,Rue de l'Eglise,59267,59236,Flesquières,Nord,Hauts-de-France,50.123516,3.116903,,Non,,,,,,,,Tout public,,,,,,
Bibliothèque Forest-sur-Marque,,,,,Groupement d'intérêt public (GIP),,"105, rue Principale 59510 Forest-sur-Marque",105,Rue Principale,59510,59247,Forest-sur-Marque,Nord,Hauts-de-France,50.633694,3.190013,,Non,,,,,,,,Tout public,,,,,,
Bibliothèque Fourmies,,,,,Groupement d'intérêt public (GIP),,17 rue Ernest Thomas 59611 FOURMIES,17,Rue Ernest Thomas,59610,59249,Fourmies,Nord,Hauts-de-France,50.013788,4.046545,,Non,,,,,,,,Tout public,,,,,,
Bibliothèque Frelinghien,,,,,Groupement d'intérêt public (GIP),,place des combattants 59236 FRELINGHIEN,,Place des Combattants,59236,59252,Frelinghien,Nord,Hauts-de-France,50.712438,2.932779,,Non,,,,,,,,Tout public,,,,,,
Bibliothèque Fretin,,,,,Groupement d'intérêt public (GIP),,Rue Alfred Cousin 59273 FRETIN,,Rue Alfred Cousin,59273,59256,Fretin,Nord,Hauts-de-France,50.558957,3.135476,,Non,,,,,,,,Tout public,,,,,,
Bibliothèque Genech,,,,,Groupement d'intérêt public (GIP),,950 rue de la Libération 59242 Genech,950,Rue de la Libération,59242,59258,Genech,Nord,Hauts-de-France,50.530502,3.213741,,Non,,,,,,,,Tout public,,,,,,
Bibliothèque Godewaersvelde,,,,,Groupement d'intérêt public (GIP),,RUE DE BOESCHEPE 59270 GODEWAERSVELDE,,Rue de Boeschepe,59270,59262,Godewaersvelde,Nord,Hauts-de-France,50.794218,2.643604,,Non,,,,,,,,Tout public,,,,,,
Bibliothèque Gondcourt,,,,,Groupement d'intérêt public (GIP),,31 rue Charles Dupretz 59147 GONDECOURT,31,Rue Charles Dupretz,59147,59266,Gondecourt,Nord,Hauts-de-France,50.546935,2.986047,,Non,,,,,,,,Tout public,,,,,,
Bibliothèque Gouzeaucourt,,,,,Groupement d'intérêt public (GIP),,Place de la mairie 59231 GOUZEAUCOURT,,Place de la Mairie,59231,59269,Gouzeaucourt,Nord,Hauts-de-France,50.054593,3.124482,,Non,,,,,,,,Tout public,,,,,,
Bibliothèque Grande-Synthe,,,,,Groupement d'intérêt public (GIP),,Place de l'Europe 59760 Grande-Synthe,,Place de l'Europe,59760,59271,Grande-Synthe,Nord,Hauts-de-France,51.014747,2.303063,,Non,,,,,,,,Tout public,,,,,,
Bibliothèque Gravelines,,,,,Groupement d'intérêt public (GIP),,"15,rue de Calais 59820 Gravelines",15,Rue de Calais,59820,59273,Gravelines,Nord,Hauts-de-France,50.9855,2.125876,,Non,,,,,,,,Tout public,,,,,,
Bibliothèque Hantay,,,,,Groupement d'intérêt public (GIP),,18 rue Mirabeau 59496 HANTAY,18,Rue Mirabeau,59496,59281,Hantay,Nord,Hauts-de-France,50.533513,2.86761,,Non,,,,,,,,Tout public,,,,,,
Bibliothèque Hargnies,,,,,Groupement d'intérêt public (GIP),,21 rue du bois 59138 Hargnies,21,Rue du Bois,59138,59283,Hargnies,Nord,Hauts-de-France,50.255443,3.84454,,Non,,,,,,,,Tout public,,,,,,
Bibliothèque Haspres,,,,,Groupement d'intérêt public (GIP),,rue de Valenciennes 59198 HASPRES,,Rue de Valenciennes,59198,59285,Haspres,Nord,Hauts-de-France,50.259516,3.418339,,Non,,,,,,,,Tout public,,,,,,
Bibliothèque Haussy,,,,,Groupement d'intérêt public (GIP),,"2, place Jean Jaurès 59294 HAUSSY",2,Place Jean Jaures,59294,59289,Haussy,Nord,Hauts-de-France,50.21802,3.480261,,Non,,,,,,,,Tout public,,,,,,
Bibliothèque Haverskerque,,,,,Groupement d'intérêt public (GIP),,RUE DU BELLOT 59660 HAVERSKERQUE,,Rue du Bellot,59660,59293,Haverskerque,Nord,Hauts-de-France,50.641758,2.540627,,Non,,,,,,,,Tout public,,,,,,
Bibliothèque Hecq,,,,,Groupement d'intérêt public (GIP),,168 rue de l'Eglise 59530 HECQ,168,Rue de l'Eglise,59530,59296,Hecq,Nord,Hauts-de-France,50.181755,3.651317,,Non,,,,,,,,Tout public,,,,,,
Bibliothèque Holque,,,,,Groupement d'intérêt public (GIP),,Route de Bourbourg 59143 HOLQUE,,Route de Bourbourg,59143,59307,Holque,Nord,Hauts-de-France,50.851444,2.205981,,Non,,,,,,,,Tout public,,,,,,
Bibliothèque Honnecourt-sur-Escaut,,,,,Groupement d'intérêt public (GIP),,6 Rue de l'église 59266 HONNECOURT-SUR-ESCAUT,6,Rue de l'Eglise,59266,59312,Honnecourt-sur-Escaut,Nord,Hauts-de-France,50.037869,3.199499,,Non,,,,,,,,Tout public,,,,,,
Bibliothèque Hordain,,,,,Groupement d'intérêt public (GIP),,rue des écoles 59111 HORDAIN,,Rue des Ecoles,59111,59313,Hordain,Nord,Hauts-de-France,50.262066,3.313004,,Non,,,,,,,,Tout public,,,,,,
Bibliothèque Hornaing,,,,,Groupement d'intérêt public (GIP),,14 rue Jean Jaurès 59171 HORNAING,14,Rue Jean Jaures,59171,59314,Hornaing,Nord,Hauts-de-France,50.365585,3.336186,,Non,,,,,,,,Tout public,,,,,,
Bibliothèque Hoymille,,,,,Groupement d'intérêt public (GIP),,mairie 59380 HOYMILLE,,Lieu Dit Casteel Van Hoymille,59380,59478,Quaëdypre,Nord,Hauts-de-France,50.954186,2.465588,,Non,,,,,,,,Tout public,,,,,,
Bibliothèque Iwuy,,,,,Groupement d'intérêt public (GIP),,50 rue Foch 59141 IWUY,50,Rue Foch,59141,59322,Iwuy,Nord,Hauts-de-France,50.233614,3.32162,,Non,,,,,,,,Tout public,,,,,,
Bibliothèque Jean Lévy Lille,,,,,Groupement d'intérêt public (GIP),,"32-34 Rue Edouard Delesalle, 59000 Lille 59000 LILLE",,Rue Charles Delesalle,59000,59350,Lille,Nord,Hauts-de-France,50.61876,3.077468,,Non,0320159720,,,http://www.bm-lille.fr/Default/jean-levy-lille-centre.aspx,,Du mardi au vendredi : 10:00-19:00 / Samedi : 10:00-18:00,Tu-Fr 10:00-19:00; Sa 10:00-18:00,Tout public,,,,,,
Bibliothèque Jeumont,,,,,Groupement d'intérêt public (GIP),,rue de la gare 59460 JEUMONT,,Rue de la Gare,59460,59324,Jeumont,Nord,Hauts-de-France,50.295725,4.088131,,Non,,,,,,,,Tout public,,,,,,
Bibliothèque La Gorgue,,,,,Groupement d'intérêt public (GIP),,"1, Rue de Béthune 59253 LA GORGUE",1,Rue de Bethune,59253,59268,La Gorgue,Nord,Hauts-de-France,50.636049,2.705836,,Non,,,,,,,,Tout public,,,,,,
Bibliothèque La Neuville,,,,,Groupement d'intérêt public (GIP),,50 rue du Général de Gaulle 59239 LA NEUVILLE,50,Rue du Général de Gaulle,59239,59427,La Neuville,Nord,Hauts-de-France,50.496141,3.048056,,Non,,,,,,,,Tout public,,,,,,
Bibliothèque Lambres-Les-Douai,,,,,Groupement d'intérêt public (GIP),,43 rue du Mal Leclerc 59552 LAMBRES-LEZ-DOUAI,43,Rue du Marechal Leclerc,59552,59329,Lambres-lez-Douai,Nord,Hauts-de-France,50.35654,3.066366,,Non,,,,,,,,Tout public,,,,,,
Bibliothèque Lannoy,,,,,Groupement d'intérêt public (GIP),,31 rue des remparts 59390 LANNOY,31,Rue des Remparts,59390,59332,Lannoy,Nord,Hauts-de-France,50.667115,3.20825,,Non,,,,,,,,Tout public,,,,,,
Bibliothèque Le Cateau-Cambrésis,,,,,Groupement d'intérêt public (GIP),,"11, rue du Marché aux Chevaux 59360 LE CATEAU-CAMBRESIS",11,Rue du Marché aux Chevaux,59360,59136,Le Cateau-Cambrésis,Nord,Hauts-de-France,50.103742,3.545399,,Non,,,,,,,,Tout public,,,,,,
Bibliothèque Le Doulieu,,,,,Groupement d'intérêt public (GIP),,rue de l'église 59940 LE DOULIEU,,Rue de l'Eglise,59940,59180,Le Doulieu,Nord,Hauts-de-France,50.682039,2.71806,,Non,,,,,,,,Tout public,,,,,,
Bibliothèque Le Maisnil,,,,,Groupement d'intérêt public (GIP),,9 rue de l'Eglise 59134 LE MAISNIL,9,Rue de l'Eglise,59134,59371,Le Maisnil,Nord,Hauts-de-France,50.615664,2.884316,,Non,,,,,,,,Tout public,,,,,,
Bibliothèque Le Quesnoy,,,,,Groupement d'intérêt public (GIP),,rue Tour Clémence 59530 LE QUESNOY,,Rue de la Couronne,59530,59481,Le Quesnoy,Nord,Hauts-de-France,50.24743,3.640172,,Non,,,,,,,,Tout public,,,,,,
Bibliothèque Leffrinckoucke,,,,,Groupement d'intérêt public (GIP),,330 rue Roger Salengro 59495 LEFFRINCKOUCKE,330,Rue Roger Salengro,59495,59340,Leffrinckoucke,Nord,Hauts-de-France,51.0506,2.436886,,Non,,,,,,,,Tout public,,,,,,
Bibliothèque Lesquin,,,,,Groupement d'intérêt public (GIP),,"Médiathèque de Lesquin Centre Culturel 1, rue Ca 59810 Lesquin",1,Rue de la Petite Chapelle,59810,59343,Lesquin,Nord,Hauts-de-France,50.589889,3.10375,,Non,,,,,,,,Tout public,,,,,,
Bibliothèque Leval,,,,,Groupement d'intérêt public (GIP),,Médiathèque Maurice Libier 59620 LEVAL,,Rue Madame Pierre Curie,59620,59344,Leval,Nord,Hauts-de-France,50.1946,3.846557,,Non,,,,,,,,Tout public,,,,,,
Bibliothèque Lezennes,,,,,Groupement d'intérêt public (GIP),,20 place de la République 59260 LEZENNES,20,Place de la Republique,59260,59346,Lezennes,Nord,Hauts-de-France,50.614517,3.116005,,Non,,,,,,,,Tout public,,,,,,
Bibliothèque Lieu-Saint-Amand,,,,,Groupement d'intérêt public (GIP),,"4, rue des écoles 59111 LIEU-SAINT-AMAND",,Rue des Ecoles,59111,59348,Lieu-Saint-Amand,Nord,Hauts-de-France,50.272373,3.344752,,Non,,,,,,,,Tout public,,,,,,
Bibliothèque Loon-Plage,,,,,Groupement d'intérêt public (GIP),,60 rue Georges Pompidou 59279 LOON-PLAGE,60,Rue Georges Pompidou,59279,59359,Loon-Plage,Nord,Hauts-de-France,50.995858,2.222673,,Non,,,,,,,,Tout public,,,,,,
Bibliothèque Louvroil,,,,,Groupement d'intérêt public (GIP),,Place De Gaulle 59720 Louvroil,,Place du General de Gaulle,59720,59365,Louvroil,Nord,Hauts-de-France,50.264476,3.960531,,Non,,,,,,,,Tout public,,,,,,
Bibliothèque Marchiennes,,,,,Groupement d'intérêt public (GIP),,place Léon Gambetta 59870 MARCHIENNES,,Place Leon Gambetta,59870,59375,Marchiennes,Nord,Hauts-de-France,50.408072,3.281165,,Non,,,,,,,,Tout public,,,,,,
Bibliothèque Maresches,,,,,Groupement d'intérêt public (GIP),,contour du Taieux 59990 Maresches,,Rue du Contour de Trieux,59990,59381,Maresches,Nord,Hauts-de-France,50.293374,3.575773,,Non,,,,,,,,Tout public,,,,,,
Bibliothèque Marpent,,,,,Groupement d'intérêt public (GIP),,L'Oiseau-Lyre 59164 MARPENT,,Cité à l'Orée du Bois,59164,59385,Marpent,Nord,Hauts-de-France,50.288901,4.07766,,Non,,,,,,,,Tout public,,,,,,
Bibliothèque Maubeuge,,,,,Groupement d'intérêt public (GIP),,Rue de la Croix 59600 Maubeuge,,Rue de la Croix,59600,59392,Maubeuge,Nord,Hauts-de-France,50.276857,3.974112,,Non,,,,,,,,Tout public,,,,,,
Bibliothèque Merris,,,,,Groupement d'intérêt public (GIP),,RUE DE STRAZEELE 59270 MERRIS,,Rue de Strazeele,59270,59399,Merris,Nord,Hauts-de-France,50.716697,2.660071,,Non,,,,,,,,Tout public,,,,,,
Bibliothèque Merville,,,,,Groupement d'intérêt public (GIP),,rue du pont de pierre 59660 MERVILLE,,Rue du Pont de Pierre,59660,59400,Merville,Nord,Hauts-de-France,50.641688,2.638026,,Non,,,,,,,,Tout public,,,,,,
Bibliothèque Millam,,,,,Groupement d'intérêt public (GIP),,rue de Merckeghem 59143 MILLAM,,Rue de Merckeghem,59143,59402,Millam,Nord,Hauts-de-France,50.854698,2.249797,,Non,,,,,,,,Tout public,,,,,,
Bibliothèque Moncheaux,,,,,Groupement d'intérêt public (GIP),,152 rue de la Mairie 59283 MONCHEAUX,152,Rue de la Mairie,59283,59408,Moncheaux,Nord,Hauts-de-France,50.454037,3.081008,,Non,,,,,,,,Tout public,,,,,,
Bibliothèque Monchecourt,,,,,Groupement d'intérêt public (GIP),,7 RUE JEAN JAURES 59234 MONCHECOURT,7,Rue Jean Jaures,59234,59409,Monchecourt,Nord,Hauts-de-France,50.303103,3.210776,,Non,,,,,,,,Tout public,,,,,,
Bibliothèque Montigny-en-Ostrevent,,,,,Groupement d'intérêt public (GIP),,avenue Raymond Honoré 59182 MONTIGNY-EN-OSTREVENT,,Avenue Raymond Honore,59182,59414,Montigny-en-Ostrevent,Nord,Hauts-de-France,50.368508,3.186427,,Non,,,,,,,,Tout public,,,,,,
Bibliothèque Morbecque,,,,,Groupement d'intérêt public (GIP),,PLACE DE L'HOTEL DE VILLE 59190 MORBECQUE,,Place de l'Hotel de Ville,59190,59416,Morbecque,Nord,Hauts-de-France,50.693092,2.517574,,Non,,,,,,,,Tout public,,,,,,
Bibliothèque Mouchin,,,,,Groupement d'intérêt public (GIP),,Mairie de Mouchin 59310 MOUCHIN,,Rue du Moulin,59310,59419,Mouchin,Nord,Hauts-de-France,50.517539,3.291874,,Non,0964311043,,bibliotheque.mouchin@laposte.net,,,Mardi : 16:30-18:30 / Mercredi 15:00-18:30 / Samedi 9:30-12:00,Tu 16:30-18:30; We 15:00-18:30; Sa 09:30-12:00,Tout public,,,,,,
Bibliothèque de Moulins Lille,,,,,Groupement d'intérêt public (GIP),,2 rue Courmont 59000 LILLE,2,Rue Courmont,59000,59350,Lille,Nord,Hauts-de-France,50.619454,3.065283,,Non,,,http://www.bm-lille.fr/Default/lille-moulins.aspx,,,,,Tout public,,,,,,
Bibliothèque Neuf-Berquin,,,,,Groupement d'intérêt public (GIP),,6 rue d'Estaires 59940 NEUF BERQUIN,,Rue d'Estaires,59940,59423,Neuf-Berquin,Nord,Hauts-de-France,50.660219,2.672262,,Non,,,,,,,,Tout public,,,,,,
Bibliothèque Neuf-Mesnil,,,,,Groupement d'intérêt public (GIP),,25 bis Rue Honoré Lespliette 59330 Neuf-Mesnil,25 bis,Rue Honoré Lespilette,59330,59424,Neuf-Mesnil,Nord,Hauts-de-France,50.265682,3.90976,,Non,,,,,,,,Tout public,,,,,,
Bibliothèque Neuville-en-Avesnois,,,,,Groupement d'intérêt public (GIP),,"15, rue du Maréchal Foch 59218 NEUVILLE EN AVESNOIS",15,Rue du Maréchal Foch,59218,59425,Neuville-en-Avesnois,Nord,Hauts-de-France,50.199106,3.581053,,Non,,,,,,,,Tout public,,,,,,
Bibliothèque Nieppe,,,,,Groupement d'intérêt public (GIP),,"1108 ,Rue d'Armentières 59850 NIEPPE",1108,Rue d'Armentieres,59850,59431,Nieppe,Nord,Hauts-de-France,50.699148,2.852411,,Non,,,,,,,,Tout public,,,,,,
Bibliothèque Nomain,,,,,Groupement d'intérêt public (GIP),,40 Rue Jean LEBAS 59310 NOMAIN,40,Rue Jean Lebas,59310,59435,Nomain,Nord,Hauts-de-France,50.499038,3.248178,,Non,0320595065,,mediatheque@mairie-nomain.fr,http://cc-espaceenpevele.reseaubibli.fr/opac/,,Mercredi : 14:00-18:00 / Vendredi : 16:00-19:00 / Samedi : 14:00-18:00,We 14:00-18:00; Fr 16:00-19:00; Sa 14:00-18:00,Tout public,,,,,,
Bibliothèque Noyelles-sur-Escaut,,,,,Groupement d'intérêt public (GIP),,rue Sorel 59159 NOYELLES-SUR-ESCAUT,,Rue Sorel,59159,59438,Noyelles-sur-Escaut,Nord,Hauts-de-France,50.138074,3.183448,,Non,,,,,,,,Tout public,,,,,,
Bibliothèque Onnaing,,,,,Groupement d'intérêt public (GIP),,"12, rue Victor Hugo 59264 ONNAING",12,Rue Victor Hugo,59264,59447,Onnaing,Nord,Hauts-de-France,50.385877,3.601287,,Non,,,,,,,,Tout public,,,,,,
Bibliothèque Ostricourt,,,,,Groupement d'intérêt public (GIP),,Place Albert Thomas 59162 OSTRICOURT,,Place Albert Thomas,59162,59452,Ostricourt,Nord,Hauts-de-France,50.454355,3.030104,,Non,,,,,,,,Tout public,,,,,,
Bibliothèque Oudezeele,,,,,Groupement d'intérêt public (GIP),,"53, rue de Wylder 59670 OUDEZEELE",53,Rue de Wylder,59670,59453,Oudezeele,Nord,Hauts-de-France,50.838102,2.509952,,Non,,,,,,,,Tout public,,,,,,
Bibliothèque Oxelaere,,,,,Groupement d'intérêt public (GIP),,3 La place 59670 OXELAERE,,La Place,59670,59454,Oxelaëre,Nord,Hauts-de-France,50.787788,2.475751,,Non,,,,,,,,Tout public,,,,,,
Bibliothèque Phalempin,,,,,Groupement d'intérêt public (GIP),,"6, rue Léon Blum 59133 PHALEMPIN",6,Rue Leon Blum,59133,59462,Phalempin,Nord,Hauts-de-France,50.516554,3.018617,,Non,,,,,,,,Tout public,,,,,,
Bibliothèque Le Pommereuil,,,,,Groupement d'intérêt public (GIP),,10 rue du Cateau 59360 LE POMMEREUIL,10,Rue du Cateau,59360,59465,Pommereuil,Nord,Hauts-de-France,50.112238,3.594924,,Non,,,,,,,,Tout public,,,,,,
Bibliothèque Pont-sur-Sambre,,,,,Groupement d'intérêt public (GIP),,219 Grand rue 59138 PONT SUR SAMBRE,219,Grand Rue,59138,59467,Pont-sur-Sambre,Nord,Hauts-de-France,50.222324,3.844547,,Non,,,,,,,,Tout public,,,,,,
Bibliothèque Proville,,,,,Groupement d'intérêt public (GIP),,"2, rue de la Paix 59267 PROVILLE",2,Rue de la Paix,59267,59476,Proville,Nord,Hauts-de-France,50.162686,3.206554,,Non,,,,,,,,Tout public,,,,,,
Bibliothèque Quesnoy-sur-Deule,,,,,Groupement d'intérêt public (GIP),,"79, rue des Etreindelles 59890 QUESNOY-SUR-DEULE",,Allee des Etreindelles,59890,59482,Quesnoy-sur-Deûle,Nord,Hauts-de-France,50.711347,3.00321,,Non,,,,,,,,Tout public,,,,,,
Bibliothèque Raillencourt-Sainte-Olle,,,,,Groupement d'intérêt public (GIP),,"626, route d'Arras 59554 RAILLENCOURT-SAINTE-OLLE",626,Route d'Arras,59554,59488,Raillencourt-Sainte-Olle,Nord,Hauts-de-France,50.182104,3.201476,,Non,,,,,,,,Tout public,,,,,,
Bibliothèque RAISMES,,,,,Groupement d'intérêt public (GIP),,"28, rue Henri Durre 59590 Raismes",28,Rue Henri Durre,59590,59491,Raismes,Nord,Hauts-de-France,50.390962,3.485642,,Non,,,,,,,,Tout public,,,,,,
Bibliothèque Recquignies,,,,,Groupement d'intérêt public (GIP),,place de Nice 59245 RECQUIGNIES,,Place de Nice,59245,59495,Recquignies,Nord,Hauts-de-France,50.284414,4.038429,,Non,,,,,,,,Tout public,,,,,,
Bibliothèque Renescure,,,,,Groupement d'intérêt public (GIP),,2 bis rue du château 59173 RENESCURE,2 bis,Rue du Chateau,59173,59497,Renescure,Nord,Hauts-de-France,50.727512,2.36781,,Non,,,,,,,,Tout public,,,,,,
Bibliothèque Rieulay,,,,,Groupement d'intérêt public (GIP),,Rue Joseph Bouliez 59870 RIEULAY,,Rue Joseph Bouliez,59870,59501,Rieulay,Nord,Hauts-de-France,50.380304,3.254533,,Non,,,,,,,,Tout public,,,,,,
Bibliothèque Rombies-et-Marchipont,,,,,Groupement d'intérêt public (GIP),,sentier des écoles 59990 ROMBIES ET MARCHIPONT,,Sentier des Ecoles,59990,59505,Rombies-et-Marchipont,Nord,Hauts-de-France,50.364357,3.64035,,Non,,,,,,,,Tout public,,,,,,
Bibliothèque Rouvignies,,,,,Groupement d'intérêt public (GIP),,"27, rue Mozart 59220 ROUVIGNIES",27,Rue Mozart,59220,59515,Rouvignies,Nord,Hauts-de-France,50.326089,3.440649,,Non,,,,,,,,Tout public,,,,,,
Bibliothèque Rubrouck,,,,,Groupement d'intérêt public (GIP),,502 RTE DE BOURBOURG 59285 RUBROUCK,502,Route de Bourbourg,59285,59516,Rubrouck,Nord,Hauts-de-France,50.839313,2.356223,,Non,,,,,,,,Tout public,,,,,,
Bibliothèque Ruesnes,,,,,Groupement d'intérêt public (GIP),,place de la mairie 59530 RUESNES,,Rue de la Mairie,59530,59363,Louvignies-Quesnoy,Nord,Hauts-de-France,50.225031,3.641286,,Non,,,,,,,,Tout public,,,,,,
Bibliothèque Saint-Jans-Cappel,,,,,Groupement d'intérêt public (GIP),,"92,rue de Berthen 59270 SAINT-JANS-CAPPEL",92,Rue de Berthen,59270,59535,Saint-Jans-Cappel,Nord,Hauts-de-France,50.764305,2.72045,,Non,,,,,,,,Tout public,,,,,,
Bibliothèque SAINT-PIERRE-BROUCK,,,,,Groupement d'intérêt public (GIP),,place Isaïe Blondé 59630 SAINT-PIERRE-BROUCK,,Rue de la Bistade,59630,59539,Saint-Pierre-Brouck,Nord,Hauts-de-France,50.896533,2.188039,,Non,,,,,,,,Tout public,,,,,,
Bibliothèque Saint-Amand-les-Eaux,,,,,Groupement d'intérêt public (GIP),,65 grand place 59230 SAINT-AMAND-LES-EAUX,65,Grand 'Place,59230,59526,Saint-Amand-les-Eaux,Nord,Hauts-de-France,50.449879,3.428651,,Non,,,,,,,,Tout public,,,,,,
Bibliothèque Saint-Maurice-Pellevoisin Lille,,,,,Groupement d'intérêt public (GIP),,"205 bis, Rue du Faubourg de Roubaix 59000 LILLE",,Chemin Pieton (briquetterie-fg Roubaix),59000,59350,Lille,Nord,Hauts-de-France,50.642738,3.089394,,Non,0320125390,,,http://www.bm-lille.fr/Default/saint-maurice-pellevoisin.aspx,,"Mardi, jeudi et vendredi : 14:00-18:00 / Mercredi et samedi : 10:00-13:00 et 14:00-18:00","Tu, Th, Fr 14:00-18:00; We, Sa 10:00-13:00,14:00-18:00",Tout public,,,,,,
Bibliothèque Saint-Pol-sur-Mer,,,,,Groupement d'intérêt public (GIP),,Boulevard de l'Aurore 59430 SAINT-POL-SUR-MER,,Boulevard de l'Aurore St Pol,59140,59183,Dunkerque,Nord,Hauts-de-France,51.026445,2.341011,,Non,,,,,,,,Tout public,,,,,,
Bibliothèque Sameon,,,,,Groupement d'intérêt public (GIP),,40 rue de l'église 59310 SAMEON,40,Rue de l'Eglise,59310,59551,Saméon,Nord,Hauts-de-France,50.477464,3.333745,,Non,0320792336,,bibliotheque-sameon@orange.fr,,,Mercredi et samedi : 10:30-12:00 et 13:30-17:30,"We, Sa 10:30-12:00,13:30-17:30",Tout public,,,,,,
Bibliothèque Saulzoir,,,,,Groupement d'intérêt public (GIP),,4 rue Victor Hugo 59227 SAULZOIR,4,Rue Victor Hugo,59227,59558,Saulzoir,Nord,Hauts-de-France,50.239493,3.440868,,Non,,,,,,,,Tout public,,,,,,
Bibliothèque Sebourg,,,,,Groupement d'intérêt public (GIP),,1 rue de l'école 59990 SEBOURG,1,Rue de l'Ecole,59990,59559,Sebourg,Nord,Hauts-de-France,50.34327,3.643915,,Non,,,,,,,,Tout public,,,,,,
Bibliothèque Seclin,,,,,Groupement d'intérêt public (GIP),,1 contour de l'église 59113 SECLIN,,Contour de l'Eglise,59113,59560,Seclin,Nord,Hauts-de-France,50.550346,3.031559,,Non,,,,,,,,Tout public,,,,,,
Bibliothèque Sepmeries,,,,,Groupement d'intérêt public (GIP),,grand rue 59269 Sepmeries,,Grand Rue,59269,59565,Sepmeries,Nord,Hauts-de-France,50.282626,3.563764,,Non,,,,,,,,Tout public,,,,,,
Bibliothèque Sequedin,,,,,Groupement d'intérêt public (GIP),,9 rue Carnot 59320 SEQUEDIN,9,Rue Carnot,59320,59566,Sequedin,Nord,Hauts-de-France,50.62378,2.987546,,Non,,,,,,,,Tout public,,,,,,
Bibliothèque Steenbecque,,,,,Groupement d'intérêt public (GIP),,la place 59189 STEENBECQUE,,Steenbecque,59189,59578,Steenbecque,Nord,Hauts-de-France,50.681022,2.489273,,Non,,,,,,,,Tout public,,,,,,
Bibliothèque Strazeele,,,,,Groupement d'intérêt public (GIP),,RTE D'HAZEBROUCK 59270 STRAZEELE,,Route d'Hazebrouck,59270,59582,Strazeele,Nord,Hauts-de-France,50.727767,2.631885,,Non,,,,,,,,Tout public,,,,,,
Bibliothèque Templemars,,,,,Groupement d'intérêt public (GIP),,rue du chevalier de la Barre 59175 TEMPLEMARS,,Rue du Chevalier de la Barre,59175,59585,Templemars,Nord,Hauts-de-France,50.573217,3.05697,,Non,,,,,,,,Tout public,,,,,,
Bibliothèque Thivencelle,,,,,Groupement d'intérêt public (GIP),,Rue de Varsovie 59163 THIVENCELLE,,Rue de Varsovie,59163,59591,Thivencelle,Nord,Hauts-de-France,50.443015,3.638158,,Non,,,,,,,,Tout public,,,,,,
Bibliothèque Thun-Saint-Martin,,,,,Groupement d'intérêt public (GIP),,41 rue des Cutiviers 59141 THUN ST MARTIN,41,Rue des Cutiviers,59141,59595,Thun-Saint-Martin,Nord,Hauts-de-France,50.227609,3.30126,,Non,,,,,,,,Tout public,,,,,,
Bibliothèque Tilloy-Lez-Cambrai,,,,,Groupement d'intérêt public (GIP),,62 RUE JEAN LEBAS 59554 TILLOY-LEZ-CAMBRAI,62,Rue Jean Lebas,59554,59597,Tilloy-lez-Cambrai,Nord,Hauts-de-France,50.196172,3.220109,,Non,,,,,,,,Tout public,,,,,,
Bibliothèque Toufflers,,,,,Groupement d'intérêt public (GIP),,9 rue des champs 59390 TOUFFLERS,9,Rue des Champs,59390,59598,Toufflers,Nord,Hauts-de-France,50.660204,3.229632,,Non,,,,,,,,Tout public,,,,,,
Bibliothèque Trelon,,,,,Groupement d'intérêt public (GIP),,10 rue Victor Hugo 59132 TRELON,10,Rue Victor Hugo,59132,59601,Trélon,Nord,Hauts-de-France,50.058797,4.105263,,Non,,,,,,,,Tout public,,,,,,
Bibliothèque Valenciennes - Odyssée,,,,,Groupement d'intérêt public (GIP),,180 rue Lomprez 59300 VALENCIENNES,180,Rue Lomprez,59300,59606,Valenciennes,Nord,Hauts-de-France,50.354798,3.49145,,Non,,,,,,,,Tout public,,,,,,
Bibliothèque Vendeville,,,,,Groupement d'intérêt public (GIP),,rue du Guet 59175 VENDEVILLE,,Rue du Guet,59175,59609,Vendeville,Nord,Hauts-de-France,50.574462,3.078944,,Non,,,,,,,,Tout public,,,,,,
Bibliothèque Viesly,,,,,Groupement d'intérêt public (GIP),,25 rue de l' Ecole des filles 59271 VIESLY,25,Rue de l'Ecole des Filles,59271,59614,Viesly,Nord,Hauts-de-France,50.154085,3.468247,,Non,,,,,,,,Tout public,,,,,,
Bibliothèque Vieux Condé,,,,,Groupement d'intérêt public (GIP),,613 rue Victor Hugo 59690 VIEUX CONDE,613,Rue Victor Hugo,59690,59616,Vieux-Condé,Nord,Hauts-de-France,50.462809,3.568174,,Non,,,,,,,,Tout public,,,,,,
Bibliothèque Vieux Lille,,,,,Groupement d'intérêt public (GIP),,25/27 place de Louise de Bettignies 59000 LILLE,27,Place Louise de Bettignies,59800,59350,Lille,Nord,Hauts-de-France,50.640928,3.064615,,Non,0320557590,,,http://www.bm-lille.fr/Default/vieux-lille.aspx,,"Mardi, jeudi et vendredi : 14:00-18:00 / Mercredi et samedi :10:00-13:00 et 14:00-18:00",,Tout public,,,,,,
Bibliothèque Vieux Lille,,,,,Groupement d'intérêt public (GIP),,25/27 place de Louise de Bettignies 59000 LILLE,27,Place Louise de Bettignies,59800,59350,Lille,Nord,Hauts-de-France,50.640928,3.064615,,Non,0320557590,,,http://www.bm-lille.fr/Default/vieux-lille.aspx,,Rendez-vous librement à la permanence,,Tout public,,,,,,
Bibliothèque Vieux Mesnil,,,,,Groupement d'intérêt public (GIP),,2 rue Haute 59138 VIEUX-MESNIL,2,Rue Haute,59138,59617,Vieux-Mesnil,Nord,Hauts-de-France,50.254396,3.864482,,Non,,,,,,,,Tout public,,,,,,
Bibliothèque Vieux Berquin,,,,,Groupement d'intérêt public (GIP),,27 Grand ' place 59232 VIEUX-BERQUIN,,Grand Place,59232,59615,Vieux-Berquin,Nord,Hauts-de-France,50.694687,2.644504,,Non,,,,,,,,Tout public,,,,,,
Bibliothèque Villers-en-Cauchies,,,,,Groupement d'intérêt public (GIP),,13 rue de Cambrai 59188 VILLERS-EN-CAUCHIES,13,Rue de Cambrai,59188,59622,Villers-en-Cauchies,Nord,Hauts-de-France,50.224826,3.400989,,Non,,,,,,,,Tout public,,,,,,
Bibliothèque Villers-Outreaux,,,,,Groupement d'intérêt public (GIP),,2 place du Général de Gaulle 59142 VILLERS-OUTREAUX,2,Place du Général de Gaulle,59142,59624,Villers-Outréaux,Nord,Hauts-de-France,50.032065,3.298563,,Non,,,,,,,,Tout public,,,,,,
Bibliothèque Volckerinkhove,,,,,Groupement d'intérêt public (GIP),,Rue de l'ancienne gare 59470 VOLCKERINCKHOVE,,Rue de l'Ancienne Gare,59470,59628,Volckerinckhove,Nord,Hauts-de-France,50.837694,2.306104,,Non,,,,,,,,Tout public,,,,,,
Bibliothèque Vred,,,,,Groupement d'intérêt public (GIP),,"470, rue Suzanne Lannoy 59870 VRED",470,Rue Suzanne Lanoy,59870,59629,Vred,Nord,Hauts-de-France,50.393474,3.232096,,Non,,,,,,,,Tout public,,,,,,
Bibliothèque Wahagnies,,,,,Groupement d'intérêt public (GIP),,place Bohl-Iggelheim 59261 WAHAGNIES,,Rue Simone Veil,59261,59630,Wahagnies,Nord,Hauts-de-France,50.483215,3.038129,,Non,,,,,,,,Tout public,,,,,,
Bibliothèque Wallincourt-Selvigny,,,,,Groupement d'intérêt public (GIP),,59127 WALINCOURT-SELVIGNY,,Walincourt-Selvigny,59127,59631,Walincourt-Selvigny,Nord,Hauts-de-France,50.070893,3.339258,,Non,,,,,,,,Tout public,,,,,,
Bibliothèque Wallers-en-Fagne,,,,,Groupement d'intérêt public (GIP),,"1, RUE Nicolas Despret 59132 WALLERS EN FAGNE",1,Rue Nicolas Despret,59132,59633,Wallers-en-Fagne,Nord,Hauts-de-France,50.063794,4.175856,,Non,,,,,,,,Tout public,,,,,,
Bibliothèque Wallon-Cappel,,,,,Groupement d'intérêt public (GIP),,"240,Route d'HAZEBROUCK 59190 WALLON-CAPPEL",240,Route d'Hazebrouck,59190,59634,Wallon-Cappel,Nord,Hauts-de-France,50.725872,2.473487,,Non,,,,,,,,Tout public,,,,,,
Bibliothèque Wannehain,,,,,Groupement d'intérêt public (GIP),,Place de la Médiathèque 59830 WANNEHAIN,,Rue de la Justice,59830,59638,Wannehain,Nord,Hauts-de-France,50.577275,3.276255,,Non,,,,,,,,Tout public,,,,,,
Bibliothèque Wargnies-le-Grand,,,,,Groupement d'intérêt public (GIP),,"15, rue des écoles 59144 Wargnies-le-Grand",15,Rue des Ecoles,59144,59639,Wargnies-le-Grand,Nord,Hauts-de-France,50.307297,3.661917,,Non,,,,,,,,Tout public,,,,,,
Bibliothèque Warlaing,,,,,Groupement d'intérêt public (GIP),,rue grande 59870 WARLAING,,Rue Grande,59870,59642,Warlaing,Nord,Hauts-de-France,50.409985,3.331514,,Non,,,,,,,,Tout public,,,,,,
Bibliothèque Watten,,,,,Groupement d'intérêt public (GIP),,22 RUE DE MILLAM 59143 WATTEN,22,Rue de Millam,59143,59647,Watten,Nord,Hauts-de-France,50.834054,2.214308,,Non,,,,,,,,Tout public,,,,,,
Bibliothèque Wavrechain-sous-Denain,,,,,Groupement d'intérêt public (GIP),,75 Rue Charles Isbergues 59220 WAVRECHAIN SOUS DENAIN,75,Rue Charles Isbergues,59220,59651,Wavrechain-sous-Denain,Nord,Hauts-de-France,50.33075,3.413553,,Non,,,,,,,,Tout public,,,,,,
Bibliothèque Wazemmes Lille,,,,,Groupement d'intérêt public (GIP),,134 Rue de l'Abbé Aerts 59000 LILLE,,Rue de l'Abbe Aerts,59000,59350,Lille,Nord,Hauts-de-France,50.625092,3.052206,,Non,0320128468,,,http://www.bm-lille.fr/Default/wazemmes.aspx,,"Mardi, jeudi et vendredi : 14:00-18:00 / Mercredi et samedi : 10:00-13:00 et 14:00-18:00","Tu, Th, Fr 14:00-18:00; We, Sa 10:00-13:00,14:00-18:00",Tout public,,,,,,
Bibliothèque Wervicq Sud,,,,,Groupement d'intérêt public (GIP),,avenue des sports 59117 WERVICQ-SUD,,Avenue des Sports,59117,59656,Wervicq-Sud,Nord,Hauts-de-France,50.775509,3.044183,,Non,,,,,,,,Tout public,,,,,,
Bibliothèque Wignehies,,,,,Groupement d'intérêt public (GIP),,"52, rue Jean Jaurès 59212 WIGNEHIES",52,Rue Jean Jaurès,59212,59659,Wignehies,Nord,Hauts-de-France,50.016636,4.003848,,Non,,,,,,,,Tout public,,,,,,
Bibliothèque Zegerscappel,,,,,Groupement d'intérêt public (GIP),,12 RUE DE LA MAIRIE 59470 ZEGERSCAPPEL,12,Rue de la Mairie,59470,59666,Zegerscappel,Nord,Hauts-de-France,50.887824,2.384912,,Non,,,,,,,,Tout public,,,,,,
Centre Social Inter-Générations,,,"Commune (Ville, CCAS, Centre Culturel...)",,,,Rue de Brueghel 62219 Longuenesse,,Rue Brueghel,62219,62525,Longuenesse,Pas-de-Calais,Hauts-de-France,50.742639,2.271666,,Non,0321984010,,,http://longuenesse.centres-sociaux.fr/,,Du lundi au vendredi : 09:00-12:00 et 13:30-17:30,"Mo-Fr 09:00-12:00,13:30-17:30",Tout public,,,,,,
CAF Calais,,,"Organisme de sécurité sociale (CAF, CPAM, CARSAT, MSA...)",,,,2 Quai de la Gendarmerie 62100 Calais,2,Quai de la Gendarmerie,62100,62193,Calais,Pas-de-Calais,Hauts-de-France,50.953131,1.858255,,Non,0810256230,,,http://www.caf.fr/allocataires/caf-du-pas-de-calais/actualites,,Du lundi au vendredi : 08:30 - 16:30,Mo-Fr 08:30-16:30,Allocataires,,,,,,
CAF Arras,,,"Organisme de sécurité sociale (CAF, CPAM, CARSAT, MSA...)",,,,Rue des Promenades 62000 Arras,,Rue des Promenades,62000,62041,Arras,Pas-de-Calais,Hauts-de-France,50.28775,2.76747,,Non,0810256230,,,http://www.caf.fr/allocataires/caf-du-pas-de-calais/actualites,,Du lundi au vendredi : 08:30 - 16:30,Mo-Fr 08:30-16:30,Allocataires,,,,,,
CAF St-Omer,,,"Organisme de sécurité sociale (CAF, CPAM, CARSAT, MSA...)",,,,rue Saint Sépulcre (Cité Administrative ) 62500 St-Omer,,Rue de la Cité Administrative,31000,31555,Toulouse,Haute-Garonne,Occitanie,43.608428,1.436239,,Non,0810256230,,,http://www.caf.fr/allocataires/caf-du-pas-de-calais/actualites,,Du lundi au vendredi : 08:30 - 16:30,Mo-Fr 08:30-16:30,Allocataires,,,,,,
Ville de Lomme/Cyber-Espace Marais,,,,,Groupement d'intérêt public (GIP),,60 rue Victor Hugo 59160 Lomme,,Rue Victor Hugo (Lomme),59000,59350,Lille,Nord,Hauts-de-France,50.633344,3.005673,,Non,0320006152,,cyberespacemarais@gmail.com,http://www.ville-lomme.fr/Lomme-au-quotidien/Equipements-municipaux/Cyber-Espaces,,Mardi et mercredi : 14:00-18:00,"Tu, We 14:00-18:00",Tout public,,,,,,
Ville de Lomme/Cyber-Espace Mont-à-Camp,,,,,Groupement d'intérêt public (GIP),,343 avenue de Dunkerque 59160 Lomme,343,Avenue de Dunkerque (Lomme),59000,59350,Lille,Nord,Hauts-de-France,50.64055,3.018631,,Non,0320221704,,cyberespacemontacamp@gmail.com,http://www.ville-lomme.fr/Lomme-au-quotidien/Equipements-municipaux/Cyber-Espaces,,Mercredi : 14:00-16:00 / Jeudi et vendredi : 16:00-18:00 / Samedi : 11:00-13:00,"We 14:00-16:00; Th, Fr 16:00-18:00; Sa 11:00-13:00",Tout public,,,,,,
Ville de Lomme/Cyber-Espace l'Odyssée,,,,,Groupement d'intérêt public (GIP),,749 avenue de Dunkerque 59160 Lomme,749,Avenue de Dunkerque (Lomme),59000,59350,Lille,Nord,Hauts-de-France,50.645656,2.988438,,Non,0320222746,,cyberespaceodyssee@gmail.com,http://www.ville-lomme.fr/Lomme-au-quotidien/Equipements-municipaux/Cyber-Espaces,,Mardi et vendredi : 14:00-18:00 / Mercredi et samedi : 10:00-18:00 / Jeudi : 16:00-18:00 / Dimanche : 10:00-13:00,"Tu, Fr 14:00-18:00; We, Sa 10:00-18:00; Th 16:00-18:00; Su 10:00-13:00",Tout public,,,,,,
Centre Social Rural de Froissy-Crèvecoeur,,,"Commune (Ville, CCAS, Centre Culturel...)",,,,1 rue Bouviers 60480 Froissy,1,Rue des Bouviers,60480,60265,Froissy,Oise,Hauts-de-France,49.567777,2.216961,,Non,0344808158,,csr.froissy.crevecoeur@gmail.com,http://www.csr-froissy-crevecoeur.fr/,,Du lundi au vendredi : 09:00-12:30 et 13:30-18:00,"Mo-Fr 09:00-12:30,13:30-18:00",Tout public,,,,,,
Maison de l'emploi et de la Formation du Boulonnais,,,Pôle Emploi,,,,4 allée Boieldieu 62200 Boulogne-sur-Mer,4,Allee Boieldieu,62200,62160,Boulogne-sur-Mer,Pas-de-Calais,Hauts-de-France,50.73624,1.609371,,Non,0321876072,,dmakhloufi@emploi-boulonnais.fr,http://www.boulogne-emploi.fr/index.php/cyber-base-emploi/,,Du lundi au vendredi : 08:30-12:00 et 13:30-17:30,"Mo-Fr 08:30-12:00,13:30-17:30",Tout public,,,,,,
Maison de Services au Public/PIMMS Libercourt,,,Maison de Service au Public (MSAP),,,,Place de la gare 62820 Libercourt,,Rue de la Gare,62820,62907,Libercourt,Pas-de-Calais,Hauts-de-France,50.473636,3.000173,,Non,0391831865,,artois-gohelle@pimms.org,https://www.maisondeservicesaupublic.fr/content/libercourt,,Lundi : 13:45-18:30 / Mardi et jeudi : 09:00-12:00 et 13:45-18:30 / Mercredi et vendredi : 09:00-12:00 et 13:45-17:30,"Mo 13:45-18:30; Tu, Th 09:00-12:00,13:45-18:30; We, Fr 09:00-12:00,13:45-17:30",Tout public,,,,,,
Maison de Services au Public/PIMMS Lens,,,Maison de Service au Public (MSAP),,,,49 place du Général De Gaulle 62300 Lens,49,Pl du General Charles de Gaulle,62300,62498,Lens,Pas-de-Calais,Hauts-de-France,50.426606,2.829288,,Non,0321287817,,lens@pimms.org,,,Lundi : 13:30-17:15 / Du mardi au vendredi : 09:00-12:00 et 13:30-17:15,"Mo 13:30-17:15; Tu-Fr 09:00-12:00,13:30-17:15",Tout public,,,,,,
Maison de Services au Public/PIMMS Arras,,,Maison de Service au Public (MSAP),,,,2 rue de Douai 62000 Arras,2,Rue de Douai,62000,62041,Arras,Pas-de-Calais,Hauts-de-France,50.288445,2.78429,,Non,0321211161,,arras@pimms.org,,,Lundi : 13:15-17:00 / Mardi : 09:00-17:45 / Du mercredi au vendredi : 09:00-12:00 et 13:45-17:00,"Mo 13:15-17:00; Tu 09:00-17:45; We-Fr 09:00-12:00,13:45-17:00",Tout public,,,,,,
Maison de Services au Public/PIMMS Bruay-la-Buissière,,,Maison de Service au Public (MSAP),,,,440 rue Christian et Honorat Bouillez 62700 Bruay-la-Buissière,440,Rue H et Christian Bouillez,62700,62178,Bruay-la-Buissière,Pas-de-Calais,Hauts-de-France,50.485231,2.547512,,Non,0321529973,,artois@pimms.org,,,Mercredi : 08:20-12:00 / Jeudi et vendredi : 08:30-12:00 et 13:30-16:30,"We 08:20-12:00; Th, Fr 08:30-12:00,13:30-16:30",Tout public,,,,,,
Maison de Services au Public/PIMMS Bruay-la-Buissière,,,Maison de Service au Public (MSAP),,,,90 rue Jean Jaurès 62530 Hersin-Coupigny,90,Rue Jean Jaures,62530,62443,Hersin-Coupigny,Pas-de-Calais,Hauts-de-France,50.445143,2.646564,,Non,0321529973,,artois@pimms.org,,,Contacter le PIMMS pour obtenir le calendrier,,Tout public,,,,,,
Maison de Services au Public/PIMMS Bruay-la-Buissière,,,Maison de Service au Public (MSAP),,,,2 place Roger Salengro 62660 Beuvry,2,Place Roger Salengro,62660,62126,Beuvry,Pas-de-Calais,Hauts-de-France,50.522176,2.681657,,Non,0321529973,,artois@pimms.org,,,Contacter le PIMMS pour obtenir le calendrier,,Tout public,,,,,,
Maison de Services au Public/PIMMS Bruay-la-Buissière,,,Maison de Service au Public (MSAP),,,,62145 Estrée-Blanche,,Estrée-Blanche,62145,62313,Estrée-Blanche,Pas-de-Calais,Hauts-de-France,50.590276,2.323035,,Non,0321529973,,artois@pimms.org,,,Contacter le PIMMS pour obtenir le calendrier,,Tout public,,,,,,
Maison de Services au Public/PIMMS Bruay-la-Buissière,,,Maison de Service au Public (MSAP),,,,62330 Isbergue,,Isbergues,62330,62473,Isbergues,Pas-de-Calais,Hauts-de-France,50.614424,2.456277,,Non,0321529973,,artois@pimms.org,,,Contacter le PIMMS pour obtenir le calendrier,,Tout public,,,,,,
Maison de Services au Public/PIMMS Bruay-la-Buissière,,,Maison de Service au Public (MSAP),,,,Place de la Mairie 62138 Douvrin,,Place de la Paloziere,62138,62276,Douvrin,Pas-de-Calais,Hauts-de-France,50.505484,2.830937,,Non,0321529973,,artois@pimms.org,,,Contacter le PIMMS pour obtenir le calendrier,,Tout public,,,,,,
Maison de Services au Public/PIMMS Bruay-la-Buissière,,,Maison de Service au Public (MSAP),,,,144 rue du Général De Gaulle 62138 Billy-Berclau,144,Rue du Général de Gaulle,62138,62132,Billy-Berclau,Pas-de-Calais,Hauts-de-France,50.519541,2.868392,,Non,0321529973,,artois@pimms.org,,,Contacter le PIMMS pour obtenir le calendrier,,Tout public,,,,,,
Maison de Services au Public/PIMMS Bruay-la-Buissière,,,Maison de Service au Public (MSAP),,,,62120 Norrent-Fontes,,Norrent-Fontes,62120,62620,Norrent-Fontes,Pas-de-Calais,Hauts-de-France,50.591346,2.414805,,Non,0321529973,,artois@pimms.org,,,Contacter le PIMMS pour obtenir le calendrier,,Tout public,,,,,,
Maison de Services au Public/PIMMS Bruay-la-Buissière,,,Maison de Service au Public (MSAP),,,,Rue du 11 Novembre 62470 Camblain-Châtelain,,Rue du 11 Novembre,62470,62197,Camblain-Châtelain,Pas-de-Calais,Hauts-de-France,50.484737,2.463591,,Non,0321529973,,artois@pimms.org,,,Contacter le PIMMS pour obtenir le calendrier,,Tout public,,,,,,
Maison de Services au Public/PIMMS Bruay-la-Buissière,,,Maison de Service au Public (MSAP),,,,62151 Burbure,,Burbure,62151,62188,Burbure,Pas-de-Calais,Hauts-de-France,50.532546,2.465236,,Non,0321529973,,artois@pimms.org,,,Contacter le PIMMS pour obtenir le calendrier,,Tout public,,,,,,
Maison de Services au Public/PIMMS Bruay-la-Buissière,,,Maison de Service au Public (MSAP),,,,62136 Richebourg,,Richebourg,62136,62706,Richebourg,Pas-de-Calais,Hauts-de-France,50.58336,2.750329,,Non,0321529973,,artois@pimms.org,,,Contacter le PIMMS pour obtenir le calendrier,,Tout public,,,,,,
Maison de Services au Public/PIMMS Bruay-la-Buissière,,,Maison de Service au Public (MSAP),,,,62260 Amettes,,Amettes,62260,62029,Amettes,Pas-de-Calais,Hauts-de-France,50.525211,2.394601,,Non,0321529973,,artois@pimms.org,,,Contacter le PIMMS pour obtenir le calendrier,,Tout public,,,,,,
Maison de Services au Public/PIMMS Bruay-la-Buissière,,,Maison de Service au Public (MSAP),,,,62460 Divion,,Divion,62460,62270,Divion,Pas-de-Calais,Hauts-de-France,50.472217,2.504582,,Non,0321529973,,artois@pimms.org,,,Contacter le PIMMS pour obtenir le calendrier,,Tout public,,,,,,
